     3.03           OBSERVATION DATA    M: Mixed            RINEX VERSION / TYPE
RTKCONV 2.4.3 b31                       20220214 033837 UTC PGM / RUN BY / DATE 
log: C:\Users\PNL_LAB_Experiment\Desktop\211011\COM8_22021  COMMENT             
format: u-blox                                              COMMENT             
                                                            MARKER NAME         
                                                            MARKER NUMBER       
                                                            MARKER TYPE         
                                                            OBSERVER / AGENCY   
                                                            REC # / TYPE / VERS 
                                                            ANT # / TYPE        
 -2932339.4135  5922694.0968  3594435.0499                  APPROX POSITION XYZ 
        0.0000        0.0000        0.0000                  ANTENNA: DELTA H/E/N
G    4 C1C L1C D1C S1C                                      SYS / # / OBS TYPES 
R    4 C1C L1C D1C S1C                                      SYS / # / OBS TYPES 
E    4 C1C L1C D1C S1C                                      SYS / # / OBS TYPES 
J    4 C1C L1C D1C S1C                                      SYS / # / OBS TYPES 
S    4 C1C L1C D1C S1C                                      SYS / # / OBS TYPES 
C    4 C2I L2I D2I S2I                                      SYS / # / OBS TYPES 
  2022     2    14     0     0   48.0030000     GPS         TIME OF FIRST OBS   
  2022     2    14     0     3   25.0000000     GPS         TIME OF LAST OBS    
G                                                           SYS / PHASE SHIFT   
R                                                           SYS / PHASE SHIFT   
E                                                           SYS / PHASE SHIFT   
J                                                           SYS / PHASE SHIFT   
S                                                           SYS / PHASE SHIFT   
C                                                           SYS / PHASE SHIFT   
  0                                                         GLONASS SLOT / FRQ #
 C1C    0.000 C1P    0.000 C2C    0.000 C2P    0.000        GLONASS COD/PHS/BIS 
                                                            END OF HEADER       
> 2022  2 14  0  0 48.0030000  0  7                     
G25  21492820.364   112945542.2511     -12350.343          49.000  
G32  22836081.234   120004417.3971     -11441.671          49.000  
G10  21014277.739   110430770.8911     -12703.997          49.000  
G12  23435594.354   123154874.4361     -14478.815          48.000  
G26  25430281.945   133637029.5131      -9064.718          44.000  
G22  23788971.134   125011883.3961     -11363.914          48.000  
G21  26614150.455   139858299.9951     -12095.714          44.000  
> 2022  2 14  0  0 49.0030000  0  7                     
G25  21495170.588   112957890.988      -12343.883          49.000  
G32  22838258.009   120015857.011      -11434.265          49.000  
G10  21016694.926   110443473.188      -12698.076          49.000  
G12  23438349.308   123169351.516      -14472.005          48.000  
G26  25432006.418   133646092.002       -9056.965          44.000  
G22  23791133.240   125023245.226      -11356.502          48.000  
G21  26616451.844   139870393.870      -12088.707          44.000  
> 2022  2 14  0  0 50.0030000  0  7                     
G25  21497520.131   112970237.519      -12349.271          49.000  
G32  22840434.480   120027293.755      -11439.065          49.000  
G10  21019111.704   110456173.224      -12703.147          49.000  
G12  23441103.854   123183826.318      -14477.471          48.000  
G26  25433730.417   133655151.600       -9061.949          44.000  
G22  23793294.842   125034604.116      -11361.179          48.000  
G21  26618752.728   139882485.246      -12093.847          44.000  
> 2022  2 14  0  0 51.0030000  0  7                     
G25  21499869.135   112982586.578      -12350.402          49.000  
G32  22842611.375   120038732.353      -11439.594          49.000  
G10  21021528.941   110468875.746      -12704.310          49.000  
G12  23443858.883   123198303.562      -14478.552          48.000  
G26  25435454.803   133664213.018       -9062.390          44.000  
G22  23795456.702   125045964.795      -11361.793          48.000  
G21  26621054.113   139894578.847      -12094.615          44.000  
> 2022  2 14  0  0 52.0030000  0  7                     
G25  21502219.734   112994936.141      -12346.544          49.000  
G32  22844787.865   120050170.772      -11435.001          49.000  
G10  21023946.258   110481578.738      -12700.820          50.000  
G12  23446613.932   123212781.225      -14474.573          48.000  
G26  25437179.150   133673274.224       -9057.863          45.000  
G22  23797618.625   125057325.225      -11357.106          48.000  
G21  26623355.519   139906672.676      -12090.629          44.000  
> 2022  2 14  0  0 53.0030000  0  7                     
G25  21504569.854   113007284.398      -12350.150          49.000  
G32  22846964.192   120061607.213      -11438.012          49.000  
G10  21026363.335   110494280.354      -12703.324          49.000  
G12  23449368.743   123227257.498      -14478.188          48.000  
G26  25438903.032   133682333.395       -9060.688          44.000  
G22  23799780.117   125068683.604      -11359.955          48.000  
G21  26625656.609   139918764.884      -12093.904          44.000  
> 2022  2 14  0  0 54.0030000  0  7                     
G25  21506920.546   113019635.103      -12350.810          49.000  
G32  22849140.623   120073045.424      -11438.041          49.000  
G10  21028780.883   110506984.424      -12704.420          49.000  
G12  23452124.017   123241736.131      -14478.725          48.000  
G26  25440627.292   133691394.330       -9060.850          44.000  
G22  23801941.959   125080043.684      -11359.847          48.000  
G21  26627958.106   139930859.253      -12094.394          44.000  
> 2022  2 14  0  0 55.0030000  0  7                     
G25  21509269.914   113031986.250      -12350.437          49.000  
G32  22851317.230   120084483.390      -11437.093          49.000  
G10  21031198.492   110519688.862      -12703.705          49.000  
G12  23454879.306   123256215.119      -14478.311          48.000  
G26  25442351.487   133700454.948       -9059.660          44.000  
G22  23804103.682   125091403.465      -11358.826          48.000  
G21  26630259.624   139942953.757      -12093.694          44.000  
> 2022  2 14  0  0 56.0030000  0  7                     
G25  21511620.089   113044337.639      -12348.195          49.000  
G32  22853493.720   120095920.920      -11433.995          49.000  
G10  21033616.144   110532393.537      -12702.094          49.000  
G12  23457634.589   123270694.270      -14476.034          48.000  
G26  25444075.607   133709515.116       -9056.706          44.000  
G22  23806265.304   125102762.745      -11355.889          48.000  
G21  26632561.155   139955048.210      -12091.261          44.000  
> 2022  2 14  0  0 57.0030000  0  7                     
G25  21513970.055   113056687.203      -12351.295          49.000  
G32  22855669.618   120107355.958      -11436.530          49.000  
G10  21036033.456   110545096.311      -12704.124          49.000  
G12  23460389.593   123285171.506      -14479.041          48.000  
G26  25445799.210   133718572.742       -9059.249          43.000  
G22  23808426.426   125114119.453      -11358.188          48.000  
G21  26634862.284   139967140.532      -12093.879          44.000  
> 2022  2 14  0  0 58.0030000  0  7                     
G25  21516320.362   113069038.091      -12351.707          49.000  
G32  22857845.697   120118791.627      -11436.049          49.000  
G10  21038450.988   110557800.399      -12704.853          49.000  
G12  23463144.838   123299649.973      -14479.178          48.000  
G26  25447522.946   133727630.974       -9058.675          44.000  
G22  23810587.706   125125476.716      -11357.367          48.000  
G21  26637163.601   139979233.885      -12093.955          44.000  
> 2022  2 14  0  0 59.0030000  0  7                     
G25  21518670.852   113081389.800      -12352.469          49.000  
G32  22860021.921   120130227.447      -11436.159          49.000  
G10  21040868.679   110570505.277      -12705.793          49.000  
G12  23465900.236   123314129.180      -14479.755          48.000  
G26  25449246.725   133736689.317       -9058.438          44.000  
G22  23812748.918   125136834.085      -11357.584          48.000  
G21  26639464.940   139991327.762      -12094.431          44.000  
> 2022  2 14  0  1  0.0030000  0  7                     
G25  21521020.920   113093741.727      -12352.351          49.000  
G32  22862198.045   120141662.810      -11435.337          49.000  
G10  21043286.400   110583210.291      -12704.968          49.000  
G12  23468655.606   123328608.526      -14479.583          48.000  
G26  25450970.354   133745747.164       -9057.701          44.000  
G22  23814910.104   125148190.915      -11356.726          48.000  
G21  26641766.388   140003421.561      -12094.001          44.000  
> 2022  2 14  0  1  1.0030000  0  7                     
G25  21523371.335   113106094.446      -12355.272          49.000  
G32  22864374.091   120153098.292      -11437.771          49.000  
G10  21045704.272   110595916.100      -12708.258          49.000  
G12  23471411.186   123343088.580      -14482.560          48.000  
G26  25452694.147   133754805.100       -9059.977          44.000  
G22  23817071.265   125159547.796      -11358.976          48.000  
G21  26644067.850   140015515.849      -12096.578          44.000  
> 2022  2 14  0  1  2.0030000  0  7                     
G25  21525722.140   113118447.659      -12353.062          49.000  
G32  22866550.094   120164533.588      -11434.795          49.000  
G10  21048122.210   110608622.354      -12705.637          49.000  
G12  23474166.777   123357569.042      -14480.198          48.000  
G26  25454417.779   133763862.804       -9057.329          44.000  
G22  23819232.381   125170904.449      -11356.038          48.000  
G21  26646369.286   140027610.347      -12094.128          44.000  
> 2022  2 14  0  1  3.0030000  0  7                     
G25  21528073.406   113130800.984      -12353.790          49.000  
G32  22868725.935   120175968.307      -11434.616          49.000  
G10  21050540.167   110621328.693      -12706.461          49.000  
G12  23476922.420   123372049.522      -14480.683          48.000  
G26  25456141.303   133772919.920       -9057.078          44.000  
G22  23821393.333   125182260.429      -11355.672          48.000  
G21  26648670.740   140039704.642      -12094.397          44.000  
> 2022  2 14  0  1  4.0030000  0  7                     
G25  21530424.281   113143153.879      -12353.242          49.000  
G32  22870901.710   120187401.930      -11433.652          49.000  
G10  21052958.052   110634034.545      -12705.878          49.000  
G12  23479677.957   123386529.492      -14480.263          48.000  
G26  25457864.586   133781975.876       -9055.732          44.000  
G22  23823554.099   125193615.258      -11354.656          48.000  
G21  26650972.170   140051798.214      -12093.621          44.000  
> 2022  2 14  0  1  5.0030000  0  7                     
G25  21532774.885   113155507.359      -12354.578          49.000  
G32  22873077.257   120198835.445      -11434.265          49.000  
G10  21055376.065   110646740.964      -12707.725          49.000  
G12  23482433.552   123401009.953      -14481.541          48.000  
G26  25459587.853   133791031.720       -9056.863          44.000  
G22  23825714.824   125204969.917      -11355.516          48.000  
G21  26653273.525   140063892.075      -12094.942          44.000  
> 2022  2 14  0  1  6.0030000  0  7                     
G25  21535124.972   113167860.921      -12351.540          49.000  
G32  22875253.093   120210268.382      -11430.422          49.000  
G10  21057794.054   110659447.415      -12704.474          49.000  
G12  23485189.200   123415490.426      -14478.315          48.000  
G26  25461311.020   133800086.910       -9052.695          44.000  
G22  23827875.444   125216323.919      -11351.279          48.000  
G21  26655574.839   140075985.727      -12091.278          44.000  
> 2022  2 14  0  1  7.0030000  0  7                     
G25  21537475.901   113180213.937      -12356.125          49.000  
G32  22877428.401   120221700.085      -11434.471          49.000  
G10  21060211.938   110672153.273      -12708.741          49.000  
G12  23487944.730   123429970.252      -14482.923          48.000  
G26  25463033.953   133809140.865       -9056.846          44.000  
G22  23830035.794   125227676.620      -11355.423          48.000  
G21  26657876.038   140088078.519      -12095.589          44.000  
> 2022  2 14  0  1  8.0030000  0  7                     
G25  21539827.083   113192569.150      -12354.896          49.000  
G32  22879603.969   120233133.308      -11432.393          49.000  
G10  21062630.229   110684861.291      -12707.760          49.000  
G12  23490700.560   123444452.195      -14481.505          48.000  
G26  25464757.071   133818196.279       -9054.539          44.000  
G22  23832196.456   125239030.776      -11353.353          48.000  
G21  26660177.578   140100173.224      -12094.084          44.000  
> 2022  2 14  0  1  9.0030000  0  7                     
G25  21542179.158   113204925.075      -12356.255          49.000  
G32  22881779.523   120244566.572      -11433.215          49.000  
G10  21065048.660   110697569.987      -12709.093          49.000  
G12  23493456.518   123458934.765      -14482.846          48.000  
G26  25466480.299   133827251.714       -9055.481          44.000  
G22  23834357.028   125250384.918      -11354.199          48.000  
G21  26662479.245   140112268.341      -12095.240          44.000  
> 2022  2 14  0  1 10.0030000  0  7                     
G25  21544529.733   113217278.702      -12352.852          49.000  
G32  22883954.814   120255996.856      -11429.196          49.000  
G10  21067466.628   110710276.346      -12705.300          49.000  
G12  23496212.023   123473414.949      -14479.327          48.000  
G26  25468202.949   133836304.124       -9051.278          44.000  
G22  23836517.066   125261735.990      -11349.938          48.000  
G21  26664780.419   140124360.859      -12091.603          44.000  
> 2022  2 14  0  1 11.0030000  0  7                     
G25  21546880.667   113229630.982      -12353.271          49.000  
G32  22886129.725   120267425.112      -11428.758          49.000  
G10  21069884.342   110722981.331      -12706.153          49.000  
G12  23498967.344   123487893.693      -14479.482          48.000  
G26  25469925.129   133845354.476       -9050.952          44.000  
G22  23838676.665   125273084.973      -11349.401          48.000  
G21  26667081.231   140136451.728      -12091.613          44.000  
> 2022  2 14  0  1 12.0030000  0  7                     
G25  21549231.604   113241985.737      -12354.915          49.000  
G32  22888304.655   120278855.167      -11429.830          49.000  
G10  21072302.527   110735688.714      -12707.368          49.000  
G12  23501723.162   123502374.832      -14481.121          48.000  
G26  25471647.614   133854406.599       -9052.094          44.000  
G22  23840836.687   125284435.689      -11350.329          48.000  
G21  26669382.475   140148544.768      -12092.915          44.000  
> 2022  2 14  0  1 13.0030000  0  7                     
G25  21551582.829   113254341.120      -12356.497          49.000  
G32  22890479.461   120290285.182      -11430.959          49.000  
G10  21074720.810   110748396.729      -12709.030          49.000  
G12  23504479.011   123516856.526      -14482.975          48.000  
G26  25473370.160   133863458.627       -9052.966          44.000  
G22  23842996.676   125295786.313      -11351.514          48.000  
G21  26671683.769   140160638.158      -12094.566          44.000  
> 2022  2 14  0  1 14.0030000  0  7                     
G25  21553933.716   113266695.553      -12352.110          49.000  
G32  22892654.334   120301713.553      -11425.740          49.000  
G10  21077138.889   110761103.728      -12704.093          49.000  
G12  23507234.575   123531337.160      -14478.341          48.000  
G26  25475092.437   133872508.989       -9047.796          44.000  
G22  23845156.304   125307135.194      -11346.109          48.000  
G21  26673984.881   140172730.280      -12089.627          44.000  
> 2022  2 14  0  1 15.0030000  0  7                     
G25  21556284.719   113279048.658      -12353.807          49.000  
G32  22894828.560   120313139.929      -11426.755          49.000  
G10  21079556.735   110773809.397      -12706.228          49.000  
G12  23509989.927   123545816.390      -14479.907          48.000  
G26  25476814.353   133881557.308       -9048.555          44.000  
G22  23847315.578   125318482.041      -11347.211          48.000  
G21  26676285.626   140184820.788      -12091.250          44.000  
> 2022  2 14  0  1 16.0030000  0  7                     
G25  21558636.074   113291403.108      -12356.115          49.000  
G32  22897003.051   120324566.960      -11428.198          49.000  
G10  21081974.831   110786516.355      -12708.854          49.000  
G12  23512745.513   123560296.872      -14482.001          48.000  
G26  25478536.368   133890606.264       -9050.118          44.000  
G22  23849474.968   125329829.465      -11348.655          48.000  
G21  26678586.616   140196912.326      -12092.945          44.000  
> 2022  2 14  0  1 17.0030000  0  7                     
G25  21560987.123   113303757.616      -12354.104          49.000  
G32  22899177.655   120335993.386      -11425.712          49.000  
G10  21084392.914   110799223.319      -12706.856          49.000  
G12  23515501.180   123574777.333      -14480.037          48.000  
G26  25480258.197   133899654.572       -9047.500          44.000  
G22  23851634.224   125341176.211      -11345.856          48.000  
G21  26680887.485   140209003.643      -12090.786          44.000  
> 2022  2 14  0  1 18.0030000  0  7                     
G25  21563338.320   113316113.073      -12355.201          49.000  
G32  22901352.107   120347420.073      -11426.052          49.000  
G10  21086811.173   110811931.173      -12707.372          49.000  
G12  23518256.942   123589258.655      -14481.062          48.000  
G26  25481980.065   133908703.109       -9047.945          44.000  
G22  23853793.544   125352523.166      -11346.390          48.000  
G21  26683188.533   140221095.612      -12091.589          44.000  
> 2022  2 14  0  1 19.0030000  0  7                     
G25  21565690.170   113328469.588      -12357.983          49.000  
G32  22903526.379   120358847.148      -11428.333          49.000  
G10  21089229.649   110824640.097      -12710.374          49.000  
G12  23521012.902   123603740.945      -14483.812          48.000  
G26  25483702.056   133917751.991       -9049.957          44.000  
G22  23855952.933   125363870.424      -11348.459          48.000  
G21  26685489.754   140233188.319      -12094.107          44.000  
> 2022  2 14  0  1 20.0030000  0  7                     
G25  21568041.270   113340825.806      -12354.056          49.000  
G32  22905700.746   120370273.244      -11423.691          49.000  
G10  21091648.029   110837348.647      -12706.381          49.000  
G12  23523768.742   123618222.849      -14479.711          48.000  
G26  25485423.836   133926799.865       -9045.249          44.000  
G22  23858112.096   125375216.642      -11343.754          48.000  
G21  26687790.843   140245280.446      -12089.901          44.000  
> 2022  2 14  0  1 21.0030000  0  7                     
G25  21570392.166   113353180.696      -12354.612          49.000  
G32  22907874.685   120381697.332      -11423.532          49.000  
G10  21094066.151   110850055.845      -12706.852          49.000  
G12  23526524.379   123632703.343      -14480.226          48.000  
G26  25487145.156   133935845.706       -9045.291          44.000  
G22  23860270.839   125386560.782      -11343.523          48.000  
G21  26690091.689   140257370.942      -12090.152          44.000  
> 2022  2 14  0  1 22.0030000  0  7                     
G25  21572742.718   113365535.106      -12357.528          49.000  
G32  22910048.371   120393120.261      -11425.729          49.000  
G10  21096484.209   110862762.543      -12709.832          49.000  
G12  23529279.919   123647183.261      -14482.951          48.000  
G26  25488866.328   133944890.339       -9047.416          44.000  
G22  23862429.389   125397903.697      -11345.655          48.000  
G21  26692392.379   140269460.656      -12092.665          44.000  
> 2022  2 14  0  1 23.0030000  0  7                     
G25  21575094.879   113377893.192      -12358.942          49.000  
G32  22912222.410   120404546.186      -11426.395          49.000  
G10  21098902.922   110875472.846      -12711.129          49.000  
G12  23532036.173   123661666.772      -14484.306          48.000  
G26  25490588.070   133953937.949       -9048.150          44.000  
G22  23864588.469   125409249.544      -11346.287          48.000  
G21  26694693.583   140281553.753      -12093.812          44.000  
> 2022  2 14  0  1 24.0030000  0  7                     
G25  21577447.758   113390251.452      -12359.650          49.000  
G32  22914396.379   120415971.620      -11426.582          49.000  
G10  21101321.675   110888183.299      -12711.837          49.000  
G12  23534792.410   123676150.374      -14484.996          48.000  
G26  25492309.701   133962985.015       -9048.013          44.000  
G22  23866747.440   125420594.824      -11346.396          48.000  
G21  26696994.816   140293646.720      -12094.050          44.000  
> 2022  2 14  0  1 25.0030000  0  7                     
G25  21579798.931   113402610.895      -12359.100          49.000  
G32  22916570.620   120427397.544      -11425.202          49.000  
G10  21103740.647   110900894.902      -12711.231          49.000  
G12  23537548.867   123690635.062      -14484.270          48.000  
G26  25494031.417   133972032.545       -9046.706          44.000  
G22  23868906.521   125431940.534      -11345.006          48.000  
G21  26699296.209   140305740.579      -12093.454          44.000  
> 2022  2 14  0  1 26.0030000  0  7                     
G25  21582150.389   113414970.307      -12358.835          49.000  
G32  22918744.800   120438822.768      -11424.387          49.000  
G10  21106159.585   110913606.424      -12710.894          49.000  
G12  23540305.292   123705119.642      -14484.011          48.000  
G26  25495752.991   133981079.344       -9045.946          44.000  
G22  23871065.412   125443285.472      -11344.090          48.000  
G21  26701597.590   140317834.102      -12092.959          44.000  
> 2022  2 14  0  1 27.0030000  0  7                     
G25  21584501.683   113427329.432      -12357.997          49.000  
G32  22920918.702   120450247.027      -11422.873          49.000  
G10  21108578.482   110926317.617      -12709.981          49.000  
G12  23543061.590   123719603.844      -14483.113          48.000  
G26  25497474.435   133990125.139       -9044.376          44.000  
G22  23873224.157   125454629.374      -11342.518          48.000  
G21  26703898.907   140329927.031      -12091.598          44.000  
> 2022  2 14  0  1 28.0030000  0  7                     
G25  21586853.453   113439687.053      -12356.927          49.000  
G32  22923092.116   120461669.099      -11421.066          49.000  
G10  21110997.086   110939027.297      -12709.445          49.000  
G12  23545817.578   123734086.448      -14481.878          48.000  
G26  25499195.369   133999168.718       -9042.611          45.000  
G22  23875382.379   125465971.028      -11340.677          48.000  
G21  26706199.786   140342018.173      -12090.310          44.000  
> 2022  2 14  0  1 29.0030000  0  7                     
G25  21589204.753   113452044.755      -12356.586          49.000  
G32  22925265.563   120473090.574      -11420.090          49.000  
G10  21113415.717   110951736.985      -12708.579          49.000  
G12  23548573.625   123748569.047      -14481.508          48.000  
G26  25500916.260   134008211.657       -9041.496          45.000  
G22  23877540.555   125477312.010      -11339.528          48.000  
G21  26708500.659   140354109.084      -12089.527          44.000  
> 2022  2 14  0  1 30.0030000  0  6                     
G25  21591556.210   113464402.803      -12356.610          49.000  
G32  22927438.842   120484511.718      -11419.377          49.000  
G10  21115834.397   110964447.007      -12708.766          49.000  
G12  23551329.667   123763051.902      -14481.345          48.000  
G22  23879698.597   125488652.595      -11338.804          48.000  
G21  26710801.542   140366200.048      -12089.397          44.000  
> 2022  2 14  0  1 31.0030000  0  6                     
G25  21593907.645   113476760.309      -12359.942          49.000  
G32  22929612.115   120495931.642      -11422.011          49.000  
G10  21118252.954   110977156.433      -12711.771          49.000  
G12  23554085.651   123777534.132      -14484.663          48.000  
G22  23881856.452   125499991.900      -11341.535          48.000  
G21  26713102.221   140378290.168      -12092.276          44.000  
> 2022  2 14  0  1 32.0030000  0  6                     
G25  21596259.631   113489121.440      -12360.139          49.000  
G32  22931785.849   120507354.513      -11421.590          49.000  
G10  21120672.212   110989869.446      -12711.844          49.000  
G12  23556842.269   123792019.896      -14484.748          48.000  
G22  23884014.834   125511334.071      -11340.868          48.000  
G21  26715403.528   140390383.621      -12092.407          44.000  
> 2022  2 14  0  1 33.0030000  0  6                     
G25  21598611.596   113501479.684      -12359.570          49.000  
G32  22933958.793   120518773.824      -11420.346          49.000  
G10  21123090.905   111002579.525      -12710.944          49.000  
G12  23559598.334   123806502.689      -14484.156          48.000  
G22  23886172.483   125522672.616      -11339.545          48.000  
G21  26717704.321   140402473.886      -12091.573          44.000  
> 2022  2 14  0  1 34.0030000  0  6                     
G25  21600963.763   113513840.595      -12359.973          49.000  
G32  22936132.166   120530195.113      -11420.015          49.000  
G10  21125510.094   111015292.251      -12711.733          49.000  
G12  23562354.893   123820988.049      -14484.317          48.000  
G22  23888330.548   125534013.076      -11339.139          48.000  
G21  26720005.490   140414566.507      -12091.507          44.000  
> 2022  2 14  0  1 35.0030000  0  6                     
G25  21603315.025   113526199.586      -12352.142          49.000  
G32  22938305.324   120541613.808      -11411.383          49.000  
G10  21127928.905   111028003.032      -12704.505          49.000  
G12  23565110.974   123835471.409      -14476.399          48.000  
G22  23890488.052   125545350.877      -11330.520          48.000  
G21  26722306.181   140426656.912      -12083.232          44.000  
> 2022  2 14  0  1 36.0030000  0  6                     
G25  21605667.437   113538560.256      -12361.236          49.000  
G32  22940478.377   120553033.507      -11419.812          49.000  
G10  21130348.045   111040715.408      -12713.171          49.000  
G12  23567867.389   123849956.358      -14485.469          48.000  
G22  23892645.806   125556689.602      -11338.835          48.000  
G21  26724607.180   140438748.703      -12092.046          44.000  
> 2022  2 14  0  1 37.0030000  0  6                     
G25  21608020.046   113550920.569      -12360.059          49.000  
G32  22942651.336   120564452.181      -11418.277          49.000  
G10  21132767.088   111053427.402      -12711.556          49.000  
G12  23570623.841   123864440.864      -14484.308          48.000  
G22  23894803.338   125568027.238      -11337.114          48.000  
G21  26726908.052   140450839.844      -12090.755          44.000  
> 2022  2 14  0  1 38.0030000  0  7                     
G25  21610372.862   113563281.734      -12361.646          49.000  
G32  22944824.345   120575871.008      -11418.806          49.000  
G26  25516398.645   134089579.7803      -9039.934          45.000  
G10  21135186.299   111066140.240      -12713.587          50.000  
G12  23573380.372   123878926.130      -14485.602          48.000  
G22  23896960.925   125579364.965      -11337.728          48.000  
G21  26729209.095   140462931.523      -12091.863          44.000  
> 2022  2 14  0  1 39.0030000  0  6                     
G25  21612724.884   113575642.930      -12359.094          49.000  
G32  22946997.036   120587289.197      -11415.682          49.000  
G10  21137605.513   111078853.034      -12710.372          49.000  
G12  23576136.834   123893411.337      -14483.083          48.000  
G22  23899118.332   125590701.983      -11334.547          48.000  
G21  26731510.079   140475022.941      -12089.181          44.000  
> 2022  2 14  0  1 40.0030000  0  7                     
G25  21615077.006   113588002.846      -12359.918          49.000  
G32  22949169.412   120598705.436      -11416.013          49.000  
G10  21140024.476   111091564.520      -12711.234          49.000  
G12  23578893.061   123907895.182      -14483.863          48.000  
G31  22478808.396   118126934.8052     -11187.968          49.000  
G22  23901275.399   125602036.982      -11334.850          48.000  
G21  26733810.703   140487112.791      -12089.853          44.000  
> 2022  2 14  0  1 41.0030000  0  7                     
G25  21617428.447   113600363.601      -12362.244          49.000  
G32  22951341.947   120610121.826      -11417.533          49.000  
G10  21142443.578   111104276.846      -12713.872          49.000  
G12  23581649.391   123922379.765      -14485.986          48.000  
G31  22480931.882   118138123.2322     -11189.741          49.000  
G22  23903432.392   125613372.063      -11336.187          48.000  
G21  26736111.406   140499203.163      -12091.754          44.000  
> 2022  2 14  0  1 42.0030000  0  9                     
G25  21619780.646   113612724.490      -12359.106          49.000  
G32  22953514.480   120621537.676      -11413.683          49.000  
G10  21144862.687   111116989.229      -12710.859          49.000  
G12  23584405.729   123936864.398      -14482.665          48.000  
G18  26061848.851   136955940.0052     -15603.799          44.000  
G31  22483060.838   118149311.5552     -11186.314          49.000  
G22  23905589.305   125624706.532      -11332.187          48.000  
G21  26738412.126   140511293.374      -12088.282          44.000  
G23  22165189.272   116478854.8282     -15059.876          49.000  
> 2022  2 14  0  1 43.0030000  0  9                     
G25  21622133.067   113625084.759      -12361.077          49.000  
G32  22955687.045   120632952.229      -11415.059          49.000  
G10  21147281.686   111129700.925      -12712.000          50.000  
G12  23587161.986   123951348.329      -14484.742          48.000  
G18  26064818.651   136971544.6732     -15605.054          44.000  
G31  22485190.119   118160499.0152     -11188.208          49.000  
G22  23907745.945   125636039.639      -11333.599          48.000  
G21  26740712.622   140523382.669      -12089.975          44.000  
G23  22168056.232   116493915.8832     -15061.921          49.000  
> 2022  2 14  0  1 44.0030000  0  9                     
G25  21624485.335   113637444.534      -12361.042          49.000  
G32  22957859.018   120644365.612      -11414.529          49.000  
G10  21149700.569   111142412.107      -12711.936          50.000  
G12  23589918.112   123965831.671      -14484.646          48.000  
G18  26067787.866   136987147.4041     -15604.250          44.000  
G31  22487319.314   118171685.2341     -11188.195          49.000  
G22  23909902.344   125647371.502      -11332.718          48.000  
G21  26743013.047   140535471.162      -12089.687          44.000  
G23  22170920.447   116508976.254      -15061.938          49.000  
> 2022  2 14  0  1 45.0030000  0  9                     
G25  21626837.543   113649803.639      -12359.180          49.000  
G32  22960030.826   120655777.633      -11411.679          49.000  
G10  21152119.322   111155122.644      -12710.993          49.000  
G12  23592674.007   123980314.248      -14482.572          48.000  
G18  26070756.743   137002749.018      -15601.149          44.000  
G31  22489448.198   118182871.006      -11185.662          49.000  
G22  23912058.478   125658701.951      -11330.162          48.000  
G21  26745313.289   140547558.691      -12087.483          44.000  
G23  22173786.251   116524035.743      -15059.407          49.000  
> 2022  2 14  0  1 46.0030000  0  9                     
G25  21629189.002   113662163.838      -12360.979          49.000  
G32  22962202.855   120667190.077      -11412.886          49.000  
G10  21154538.292   111167834.177      -12712.184          49.000  
G12  23595430.132   123994797.830      -14484.225          48.000  
G18  26073725.724   137018350.784      -15601.963          44.000  
G31  22491577.048   118194057.633      -11187.206          49.000  
G22  23914214.632   125670032.740      -11331.165          48.000  
G21  26747613.675   140559646.999      -12088.862          44.000  
G23  22176653.410   116539096.156      -15061.067          49.000  
> 2022  2 14  0  1 47.0030000  0 10                     
G25  21631541.560   113674523.837      -12361.310          49.000  
G32  22964374.305   120678601.648      -11412.689          49.000  
G26  25531871.849   134170891.9012      -9033.441          45.000  
G10  21156957.212   111180545.469      -12712.336          49.000  
G12  23598186.249   124009281.133      -14484.628          48.000  
G18  26076694.461   137033951.429      -15601.590          44.000  
G31  22493706.048   118205243.821      -11187.428          49.000  
G22  23916370.649   125681362.594      -11330.900          48.000  
G21  26749913.911   140571734.826      -12088.954          44.000  
G23  22179518.838   116554156.191      -15061.438          49.000  
> 2022  2 14  0  1 48.0030000  0  9                     
G25  21633894.009   113686884.214      -12362.402          49.000  
G32  22966545.907   120690012.916      -11412.974          49.000  
G10  21159376.204   111193257.109      -12713.362          49.000  
G12  23600942.448   124023764.719      -14485.634          48.000  
G18  26079663.085   137049551.505      -15601.690          44.000  
G31  22495835.082   118216430.134      -11188.348          49.000  
G22  23918526.660   125692692.072      -11331.187          48.000  
G21  26752214.264   140583822.733      -12089.766          44.000  
G23  22182384.736   116569216.403      -15062.162          49.000  
> 2022  2 14  0  1 49.0030000  0  9                     
G25  21636246.183   113699248.190      -12363.373          49.000  
G32  22968718.020   120701427.101      -11413.254          49.000  
G10  21161795.860   111205972.318      -12714.752          49.000  
G12  23603699.272   124038251.809      -14486.425          48.000  
G18  26082632.220   137065154.240      -15601.673          44.000  
G31  22497964.665   118227619.780      -11188.860          49.000  
G22  23920683.135   125704024.398      -11331.330          48.000  
G21  26754515.192   140595913.940      -12090.607          44.000  
G23  22185251.345   116584280.024      -15062.788          49.000  
> 2022  2 14  0  1 50.0030000  0  9                     
G25  21638598.964   113711611.108      -12363.317          49.000  
G32  22970889.817   120712839.549      -11412.497          49.000  
G10  21164215.306   111218686.426      -12714.605          49.000  
G12  23606455.936   124052737.756      -14486.322          48.000  
G18  26085600.892   137080754.978      -15600.676          44.000  
G31  22500094.013   118238808.130      -11188.609          49.000  
G22  23922839.251   125715354.926      -11330.603          48.000  
G21  26756815.812   140608003.772      -12090.138          44.000  
G23  22188117.564   116599342.412      -15062.665          49.000  
> 2022  2 14  0  1 51.0030000  0  9                     
G25  21640951.715   113723973.101      -12365.095          49.000  
G32  22973061.190   120724250.393      -11413.495          49.000  
G10  21166634.594   111231399.597      -12716.450          49.000  
G12  23609212.315   124067222.680      -14487.950          48.000  
G18  26088569.287   137096353.852      -15601.509          44.000  
G31  22502223.171   118249995.297      -11190.061          49.000  
G22  23924995.088   125726683.778      -11331.578          48.000  
G21  26759116.222   140620092.379      -12091.476          44.000  
G23  22190983.670   116614403.679      -15064.131          49.000  
> 2022  2 14  0  1 52.0030000  0  9                     
G25  21643304.610   113736336.685      -12359.460          49.000  
G32  22975232.766   120735662.171      -11407.495          49.000  
G10  21169054.162   111244114.248      -12710.115          49.000  
G12  23611968.968   124081709.124      -14482.412          48.000  
G18  26091537.818   137111953.391      -15595.119          44.000  
G31  22504352.304   118261183.825      -11184.479          49.000  
G22  23927151.155   125738013.483      -11325.271          48.000  
G21  26761416.848   140632182.290      -12085.500          44.000  
G23  22193850.199   116629466.373      -15058.725          49.000  
> 2022  2 14  0  1 53.0030000  0  9                     
G25  21645657.103   113748699.295      -12368.860          49.000  
G32  22977404.228   120747072.278      -11416.182          49.000  
G10  21171473.551   111256827.936      -12719.499          49.000  
G12  23614725.496   124096194.492      -14491.711          48.000  
G18  26094506.005   137127551.004      -15603.543          44.000  
G31  22506481.283   118272371.112      -11193.604          49.000  
G22  23929306.840   125749341.458      -11333.957          48.000  
G21  26763717.298   140644270.926      -12094.632          44.000  
G23  22196716.310   116644527.881      -15067.855          49.000  
> 2022  2 14  0  1 54.0030000  0  9                     
G25  21648010.133   113761064.962      -12363.178          49.000  
G32  22979575.736   120758484.754      -11409.519          49.000  
G10  21173893.480   111269544.656      -12714.371          49.000  
G12  23617482.521   124110682.816      -14485.700          48.000  
G18  26097474.533   137143150.719      -15596.536          44.000  
G31  22508610.763   118283561.186      -11187.300          49.000  
G22  23931463.014   125760671.737      -11327.297          48.000  
G21  26766018.198   140656362.309      -12088.584          44.000  
G23  22199583.033   116659592.243      -15061.567          49.000  
> 2022  2 14  0  1 55.0030000  0 10                     
G25  21650362.265   113773427.783      -12360.925          49.000  
G32  22981747.102   120769893.721      -11406.688          49.000  
G10  21176312.882   111282258.470      -12711.943          49.000  
G12  23620238.989   124125168.215      -14483.370          48.000  
G18  26100442.344   137158746.675      -15593.573          44.000  
G31  22510739.384   118294748.188      -11184.963          49.000  
G22  23933618.503   125771998.440      -11324.463          48.000  
G21  26768318.488   140668450.559      -12086.171          44.000  
G23  22202449.398   116674653.602      -15059.346          49.000  
G24  25997495.427   136617760.3782     -15842.582          44.000  
> 2022  2 14  0  1 56.0030000  0 10                     
G25  21652714.015   113785789.606      -12364.258          49.000  
G32  22983917.847   120781301.011      -11409.437          49.000  
G10  21178732.103   111294971.256      -12715.074          49.000  
G12  23622995.266   124139652.528      -14486.768          48.000  
G18  26103409.808   137174340.689      -15596.075          44.000  
G31  22512867.897   118305933.940      -11188.124          49.000  
G22  23935773.636   125783323.390      -11327.051          48.000  
G21  26770618.617   140680537.504      -12089.214          44.000  
G23  22205315.260   116689713.768      -15062.566          49.000  
G24  26000510.317   136633603.500      -15845.165          44.000  
> 2022  2 14  0  1 57.0030000  0 10                     
G25  21655066.692   113798152.602      -12363.183          49.000  
G32  22986088.474   120792708.793      -11407.681          49.000  
G10  21181151.511   111307685.159      -12713.492          50.000  
G12  23625751.711   124154137.917      -14485.534          48.000  
G18  26106377.285   137189934.924      -15593.876          44.000  
G31  22514996.621   118317120.607      -11186.722          49.000  
G22  23937928.871   125794648.761      -11325.178          48.000  
G21  26772918.911   140692625.321      -12087.786          44.000  
G23  22208181.318   116704774.912      -15061.299          49.000  
G24  26003525.276   136649446.975      -15843.208          44.000  
> 2022  2 14  0  1 58.0030000  0 10                     
G25  21657419.307   113810515.956      -12367.999          49.000  
G32  22988259.228   120804116.246      -11411.688          49.000  
G10  21183571.002   111320399.379      -12718.599          49.000  
G12  23628508.179   124168623.574      -14490.246          48.000  
G18  26109344.682   137205528.587      -15597.837          44.000  
G31  22517125.671   118328307.378      -11191.240          49.000  
G22  23940084.021   125805973.740      -11329.214          48.000  
G21  26775219.155   140704713.198      -12092.336          44.000  
G23  22211047.268   116719836.216      -15065.763          49.000  
G24  26006540.107   136665289.992      -15847.226          44.000  
> 2022  2 14  0  1 59.0030000  0 10                     
G25  21659772.194   113822880.567      -12360.699          49.000  
G32  22990430.156   120815524.300      -11403.981          49.000  
G10  21185990.700   111333114.841      -12711.204          49.000  
G12  23631264.892   124183110.403      -14482.994          48.000  
G18  26112312.172   137221122.573      -15589.738          44.000  
G31  22519254.628   118339495.168      -11183.919          49.000  
G22  23942239.166   125817299.246      -11321.253          48.000  
G21  26777519.662   140716802.035      -12084.927          44.000  
G23  22213913.749   116734898.620      -15058.612          49.000  
G24  26009554.993   136681133.462      -15839.298          44.000  
> 2022  2 14  0  2  0.0030000  0 10                     
G25  21662125.001   113835245.563      -12365.430          49.000  
G32  22992601.089   120826932.044      -11407.993          49.000  
G10  21188410.470   111345830.637      -12715.732          50.000  
G12  23634021.705   124197597.526      -14487.626          48.000  
G18  26115279.588   137236715.993      -15593.423          44.000  
G31  22521383.607   118350683.088      -11188.389          49.000  
G22  23944394.363   125828624.379      -11325.334          48.000  
G21  26779820.162   140728890.955      -12089.254          44.000  
G23  22216780.364   116749961.202      -15063.079          49.000  
G24  26012569.886   136696976.499      -15843.241          44.000  
> 2022  2 14  0  2  1.0030000  0 10                     
G25  21664478.327   113847610.139      -12365.998          49.000  
G32  22994771.492   120838338.684      -11407.726          49.000  
G10  21190830.152   111358546.004      -12716.757          49.000  
G12  23636778.420   124212084.126      -14487.959          48.000  
G18  26118246.693   137252308.045      -15592.854          44.000  
G31  22523512.559   118361870.318      -11188.479          49.000  
G22  23946549.287   125839948.339      -11324.963          48.000  
G21  26782120.540   140740979.142      -12089.449          44.000  
G23  22219646.391   116765023.158      -15063.181          49.000  
G24  26015584.519   136712818.278      -15842.703          44.000  
> 2022  2 14  0  2  2.0030000  0 10                     
G25  21666832.294   113859977.620      -12364.898          49.000  
G32  22996942.324   120849747.562      -11405.948          49.000  
G10  21193250.373   111371264.194      -12715.504          49.000  
G12  23639535.657   124226573.550      -14486.765          48.000  
G18  26121214.194   137267902.083      -15591.009          44.000  
G31  22525642.323   118373060.225      -11187.251          49.000  
G22  23948704.595   125851274.465      -11323.149          48.000  
G21  26784421.334   140753069.946      -12088.084          44.000  
G23  22222512.770   116780087.854      -15061.980          49.000  
G24  26018599.536   136728662.171      -15840.904          44.000  
> 2022  2 14  0  2  3.0030000  0 10                     
G25  21669186.180   113872343.404      -12365.723          49.000  
G32  22999112.709   120861154.061      -11406.047          49.000  
G10  21195670.255   111383980.673      -12716.561          49.000  
G12  23642292.552   124241061.184      -14487.482          48.000  
G18  26124181.195   137283493.470      -15590.792          44.000  
G31  22527771.790   118384248.172      -11187.707          49.000  
G22  23950859.482   125862598.148      -11323.242          48.000  
G21  26786721.800   140765158.747      -12088.530          44.000  
G23  22225378.640   116795150.657      -15062.520          49.000  
G24  26021614.025   136744503.551      -15840.919          44.000  
> 2022  2 14  0  2  4.0030000  0 10                     
G25  21671538.991   113884708.746      -12363.525          49.000  
G32  23001282.929   120872559.443      -11403.266          49.000  
G10  21198090.045   111396696.650      -12713.737          49.000  
G12  23645049.397   124255548.287      -14485.311          48.000  
G18  26127147.875   137299083.483      -15587.771          44.000  
G31  22529900.843   118395435.432      -11185.409          49.000  
G22  23953014.079   125873920.638      -11320.394          48.000  
G21  26789022.095   140777246.807      -12086.108          44.000  
G23  22228244.766   116810212.841      -15060.428          49.000  
G24  26024628.266   136760343.665      -15838.018          44.000  
> 2022  2 14  0  2  5.0030000  0 10                     
G25  21673892.216   113897074.528      -12364.960          49.000  
G32  23003453.194   120883964.580      -11403.991          49.000  
G10  21200509.917   111409413.059      -12715.697          49.000  
G12  23647806.296   124270035.731      -14486.551          48.000  
G18  26130114.448   137314672.986      -15588.190          44.000  
G31  22532029.922   118406622.867      -11186.438          49.000  
G22  23955168.666   125885242.818      -11321.013          48.000  
G21  26791322.434   140789335.005      -12087.230          44.000  
G23  22231111.015   116825275.253      -15061.394          49.000  
G24  26027642.493   136776183.396      -15838.378          44.000  
> 2022  2 14  0  2  6.0030000  0 10                     
G25  21676244.747   113909440.790      -12366.332          49.000  
G32  23005623.376   120895369.531      -11404.818          49.000  
G10  21202929.882   111422129.865      -12716.433          49.000  
G12  23650563.205   124284523.582      -14488.075          48.000  
G18  26133081.057   137330262.047      -15588.699          44.000  
G31  22534158.985   118417810.553      -11187.685          49.000  
G22  23957323.174   125896564.740      -11321.727          48.000  
G21  26793622.821   140801423.399      -12088.671          44.000  
G23  22233977.444   116840337.977      -15062.730          49.000  
G24  26030656.751   136792022.816      -15839.257          44.000  
> 2022  2 14  0  2  7.0030000  0 10                     
G25  21678597.546   113921806.450      -12363.623          49.000  
G32  23007793.318   120906773.186      -11401.211          49.000  
G10  21205349.728   111434846.114      -12714.979          50.000  
G12  23653319.969   124299010.717      -14485.031          48.000  
G18  26136047.249   137345849.548      -15585.044          44.000  
G31  22536287.984   118428997.368      -11184.626          49.000  
G22  23959477.374   125907885.303      -11318.192          48.000  
G21  26795923.022   140813510.854      -12085.127          44.000  
G23  22236843.310   116855399.898      -15059.731          49.000  
G24  26033670.637   136807860.792      -15835.455          44.000  
> 2022  2 14  0  2  8.0030000  0 11                     
G25  21680949.808   113934171.360      -12365.192          49.000  
G32  23009963.133   120918175.423      -11402.220          49.000  
G26  25567952.009   134360494.3492      -9022.221          45.000  
G10  21207769.423   111447561.482      -12715.328          49.000  
G12  23656076.614   124313497.021      -14486.495          48.000  
G18  26139013.199   137361435.363      -15585.684          44.000  
G31  22538416.633   118440183.189      -11186.032          49.000  
G22  23961631.411   125919204.375      -11319.058          48.000  
G21  26798223.067   140825597.287      -12086.498          44.000  
G23  22239709.553   116870460.891      -15061.297          49.000  
G24  26036684.199   136823697.219      -15836.317          44.000  
> 2022  2 14  0  2  9.0030000  0 10                     
G25  21683302.387   113946539.681      -12369.067          49.000  
G32  23012133.697   120929580.393      -11405.557          49.000  
G10  21210189.772   111460280.232      -12718.791          49.000  
G12  23658833.885   124327986.642      -14490.427          48.000  
G18  26141979.622   137377023.656      -15588.771          44.000  
G31  22540545.580   118451372.175      -11189.831          49.000  
G22  23963785.892   125930526.096      -11322.134          48.000  
G21  26800523.714   140837686.821      -12090.030          44.000  
G23  22242576.830   116885525.097      -15065.112          49.000  
G24  26039698.320   136839536.236      -15839.472          44.000  
> 2022  2 14  0  2 10.0030000  0 10                     
G25  21685655.324   113958906.444      -12366.400          49.000  
G32  23014303.917   120940983.116      -11401.960          49.000  
G10  21212609.802   111472997.435      -12716.657          49.000  
G12  23661590.802   124342474.611      -14487.462          48.000  
G18  26144945.486   137392609.427      -15584.896          44.000  
G31  22542674.324   118462559.329      -11186.586          49.000  
G22  23965939.983   125941845.523      -11318.582          48.000  
G21  26802823.936   140849774.503      -12087.215          44.000  
G23  22245443.324   116900587.547      -15061.882          49.000  
G24  26042711.929   136855372.877      -15835.864          44.000  
> 2022  2 14  0  2 11.0030000  0 10                     
G25  21688008.306   113971272.288      -12365.851          49.000  
G32  23016473.432   120952384.256      -11400.898          49.000  
G10  21215029.644                      -12715.727          51.000  
G12  23664347.576   124356961.581      -14487.034          48.000  
G18  26147911.075   137408193.360      -15583.530          44.000  
G31  22544802.857   118473745.344      -11186.090          49.000  
G22  23968093.780   125953163.289      -11317.442          48.000  
G21  26805123.898   140861860.962      -12086.384          44.000  
G23  22248309.396   116915648.907      -15061.401          49.000  
G24  26045725.209   136871207.790      -15834.642          44.000  
> 2022  2 14  0  2 12.0030000  0 10                     
G25  21690361.964   113983639.303      -12368.475          49.000  
G32  23018643.420   120963785.875      -11402.736          49.000  
G10  21217449.714   111498431.005      -12718.570          49.000  
G12  23667104.591   124371449.615      -14489.496          48.000  
G18  26150876.635   137423777.514      -15585.232          44.000  
G31  22546931.686   118484932.250      -11188.287          49.000  
G22  23970247.547   125964481.470      -11319.312          48.000  
G21  26807424.087   140873948.290      -12088.805          44.000  
G23  22251175.690   116930711.239      -15063.734          49.000  
G24  26048738.599   136887043.052      -15836.398          44.000  
> 2022  2 14  0  2 13.0030000  0 10                     
G25  21692715.098   113996007.008      -12365.814          49.000  
G32  23020813.074   120975187.518      -11399.464          49.000  
G10  21219869.897   111511149.000      -12715.749          49.000  
G12  23669861.718   124385938.259      -14486.724          48.000  
G18  26153842.171   137439361.419      -15581.559          44.000  
G31  22549060.425   118496119.609      -11185.327          49.000  
G22  23972401.367   125975799.599      -11315.871          48.000  
G21  26809724.345   140886036.004      -12085.734          44.000  
G23  22254042.096   116945774.070      -15060.844          49.000  
G24  26051752.058   136902878.194      -15832.906          44.000  
> 2022  2 14  0  2 14.0030000  0 10                     
G25  21695069.158   114008376.039      -12369.006          49.000  
G32  23022982.885   120986589.791      -11401.959          49.000  
G10  21222290.346   111523868.284      -12718.832          49.000  
G12  23672619.082   124400428.127      -14489.881          48.000  
G18  26156807.737   137454945.701      -15583.788          44.000  
G31  22551189.723   118507308.035      -11188.312          49.000  
G22  23974555.325   125987118.290      -11318.289          48.000  
G21  26812024.808   140898124.735      -12088.571          44.000  
G23  22256908.314   116960838.034      -15063.863          49.000  
G24  26054765.434   136918713.839      -15835.321          44.000  
> 2022  2 14  0  2 15.0030000  0 10                     
G25  21697423.729   114020744.279      -12368.200          49.000  
G32  23025152.311   120997990.619      -11400.690          49.000  
G10  21224710.643   111536586.749      -12718.237          49.000  
G12  23675376.254   124414917.121      -14489.029          48.000  
G18  26159773.012   137470528.262      -15582.124          44.000  
G31  22553318.918   118518495.429      -11187.425          49.000  
G22  23976709.003   125998435.465      -11316.940          48.000  
G21  26814325.056   140910212.389      -12087.521          44.000  
G23  22259774.141   116975901.032      -15063.072          49.000  
G24  26057778.530   136934547.882      -15833.750          44.000  
> 2022  2 14  0  2 16.0030000  0 10                     
G25  21699777.549   114033111.074      -12366.235          49.000  
G32  23027321.343   121009389.298      -11397.534          49.000  
G10  21227130.628   111549303.779      -12716.942          50.000  
G12  23678133.113   124429404.565      -14486.682          48.000  
G18  26162737.894   137486108.420      -15578.931          44.000  
G31  22555447.483   118529681.102      -11184.685          49.000  
G22  23978862.173   126009750.433      -11313.882          48.000  
G21  26816624.944   140922298.288      -12085.052          44.000  
G23  22262639.915   116990962.367      -15060.379          49.000  
G24  26060791.261   136950379.649      -15830.543          44.000  
> 2022  2 14  0  2 17.0030000  0 10                     
G25  21702130.632   114045479.605      -12370.281          49.000  
G32  23029490.804   121020789.050      -11401.078          49.000  
G10  21229550.957   111562022.440      -12720.530          49.000  
G12  23680890.351   124443893.666      -14490.771          48.000  
G18  26165702.885   137501689.399      -15582.266          44.000  
G31  22557576.411   118540868.285      -11188.731          49.000  
G22  23981015.545   126021066.394      -11317.297          48.000  
G21  26818925.114   140934385.634      -12089.024          44.000  
G23  22265506.736   117006025.278      -15064.511          49.000  
G24  26063804.219   136966212.351      -15833.970          44.000  
> 2022  2 14  0  2 18.0030000  0 11                     
G25  21704484.436   114057848.695      -12371.240          49.000  
G32  23031659.966   121032188.685      -11401.443          49.000  
G26  25585120.026   134450712.7792      -9021.295          45.000  
G10  21231971.374   111574741.624      -12721.606          49.000  
G12  23683647.650   124458383.232      -14491.679          48.000  
G18  26168667.845   137517269.979      -15582.232          43.000  
G31  22559705.374   118552055.771      -11189.510          49.000  
G22  23983168.940   126032382.170      -11317.466          48.000  
G21  26821225.354   140946473.221      -12089.516          44.000  
G23  22268373.158   117021088.548      -15065.337          49.000  
G24  26066817.089   136982044.797      -15834.129          44.000  
> 2022  2 14  0  2 19.0030000  0 11                     
G25  21706838.572   114070219.169      -12368.981          49.000  
G32  23033829.271   121043589.020      -11398.488          49.000  
G26  25586837.302   134459732.9592      -9018.236          45.000  
G10  21234392.053   111587462.170      -12719.467          49.000  
G12  23686405.128   124472874.084      -14489.336          48.000  
G18  26171632.889   137532851.005      -15579.043          43.000  
G31  22561834.769   118563244.387      -11186.961          49.000  
G22  23985322.485   126043698.576      -11314.535          48.000  
G21  26823525.750   140958561.918      -12087.103          44.000  
G23  22271239.782   117036153.007      -15062.892          49.000  
G24  26069830.020   136997877.809      -15831.119          44.000  
> 2022  2 14  0  2 20.0030000  0 11                     
G25  21709192.845   114082588.966      -12371.393          49.000  
G32  23035998.070   121054988.008      -11400.414          49.000  
G26  25588553.173   134468751.2681      -9020.154          45.000  
G10  21236812.579   111600181.969      -12721.376          49.000  
G12  23689162.517   124487364.172      -14491.678          48.000  
G18  26174597.614   137548430.416      -15580.631          43.000  
G31  22563963.977   118574432.078      -11189.249          49.000  
G22  23987475.694   126055013.564      -11316.254          48.000  
G21  26825825.962   140970649.614      -12089.282          44.000  
G23  22274106.287   117051216.610      -15065.217          49.000  
G24  26072842.702   137013709.329      -15832.870          44.000  
> 2022  2 14  0  2 21.0030000  0 11                     
G25  21711547.078   114094960.565      -12370.685          49.000  
G32  23038167.302   121066388.102      -11398.867          49.000  
G26  25590269.764   134477771.140       -9018.517          45.000  
G10  21239233.457   111612903.581      -12721.021          49.000  
G12  23691920.229   124501855.959      -14490.812          48.000  
G18  26177562.430   137564010.675      -15578.904          43.000  
G31  22566093.308   118585621.301      -11188.099          49.000  
G22  23989629.028   126066329.595      -11314.695          48.000  
G21  26828126.469   140982738.800      -12088.032          44.000  
G23  22276973.102   117066281.812      -15064.208          49.000  
G24  26075855.550   137029541.824      -15831.214          44.000  
> 2022  2 14  0  2 22.0040000  0 11                     
G25  21713903.512   114107343.632      -12370.020          49.000  
G32  23040338.569   121077798.026      -11397.531          49.000  
G26  25591987.557   134486798.442       -9017.204          45.000  
G10  21241656.566   111625636.940      -12720.371          49.000  
G12  23694680.500   124516361.246      -14489.960          48.000  
G18  26180529.878   137579604.675      -15577.318          43.000  
G31  22568224.525   118596820.572      -11187.182          49.000  
G22  23991784.314   126077655.294      -11313.244          48.000  
G21  26830429.126   140994838.892      -12087.095          44.000  
G23  22279842.561   117081360.980      -15063.189          49.000  
G24  26078871.087   137045388.439      -15829.729          44.000  
> 2022  2 14  0  2 23.0040000  0 11                     
G25  21716256.375   114119713.189      -12372.496          49.000  
G32  23042507.331   121089194.721      -11399.226          49.000  
G26  25593703.468   134495814.860       -9018.796          45.000  
G10  21244077.046   111638356.438      -12723.203          49.000  
G12  23697437.788   124530850.813      -14492.353          48.000  
G18  26183493.979   137595180.997      -15578.630          43.000  
G31  22570353.315   118608007.253      -11189.242          49.000  
G22  23993936.994   126088967.794      -11315.030          48.000  
G21  26832729.091   141006925.451      -12089.350          44.000  
G23  22282709.303   117096423.762      -15065.345          49.000  
G24  26081883.281   137061217.256      -15831.179          44.000  
> 2022  2 14  0  2 24.0040000  0 10                     
G25  21718611.965   114132085.780      -12371.179          49.000  
G32  23044676.356   121100593.780      -11397.183          49.000  
G10  21246498.085   111651078.885      -12721.242          49.000  
G12  23700195.705   124545343.319      -14491.011          48.000  
G18  26186458.553   137610759.433      -15576.440          43.000  
G31  22572482.740   118619196.729      -11187.836          49.000  
G22  23996090.163   126100282.580      -11313.046          48.000  
G21  26835029.609   141019014.733      -12087.636          44.000  
G23  22285575.980   117111489.391      -15063.991          49.000  
G24  26084895.868   137077048.296      -15829.075          44.000  
> 2022  2 14  0  2 25.0040000  0 10                     
G25  21720966.562   114144459.147      -12372.706          49.000  
G32  23046845.727   121111992.942      -11398.091          49.000  
G10  21248919.259   111663802.080      -12722.143          49.000  
G12  23702953.700   124559836.509      -14492.471          48.000  
G18  26189422.995   137626337.703      -15577.135          43.000  
G31  22574611.898   118630386.732      -11189.222          49.000  
G22  23998243.315   126111597.393      -11313.807          48.000  
G21  26837330.241   141031104.502      -12089.037          44.000  
G23  22288443.234   117126555.612      -15065.479          49.000  
G24  26087908.439   137092879.311      -15830.086          44.000  
> 2022  2 14  0  2 26.0040000  0 10                     
G25  21723321.360   114156831.009      -12371.815          49.000  
G32  23049014.177   121123389.907      -11396.390          49.000  
G10  21251340.138   111676523.768      -12721.932          50.000  
G12  23705711.299   124574328.095      -14491.385          48.000  
G18  26192386.951   137641913.508      -15575.123          43.000  
G31  22576741.086   118641574.956      -11187.815          49.000  
G22  24000396.072   126122909.949      -11312.156          48.000  
G21  26839630.539   141043192.444      -12087.566          44.000  
G23  22291308.890   117141620.114      -15064.125          49.000  
G24  26090920.515   137108707.971      -15828.055          44.000  
> 2022  2 14  0  2 27.0040000  0 10                     
G25  21725675.812   114169203.828      -12372.732          49.000  
G32  23051183.204   121134787.161      -11396.626          49.000  
G10  21253761.187   111689246.334      -12723.036          49.000  
G12  23708469.160   124588820.550      -14492.097          48.000  
G18  26195350.973   137657489.343      -15575.102          43.000  
G31  22578870.362   118652763.901      -11188.483          49.000  
G22  24002548.870   126134222.713      -11312.102          48.000  
G21  26841931.059   141055281.065      -12088.272          44.000  
G23  22294175.391   117156685.394      -15064.849          49.000  
G24  26093932.639   137124536.792      -15828.050          44.000  
> 2022  2 14  0  2 28.0040000  0 11                     
G25  21728030.568   114181577.546      -12370.897          49.000  
G32  23053352.094   121146184.636      -11394.223          49.000  
G26  25602281.678                3      -9013.398          45.000  
G10  21256182.410   111701969.751      -12720.997          49.000  
G12  23711227.074   124603313.815      -14490.324          48.000  
G18  26198315.001   137673065.130      -15572.425          43.000  
G31  22580999.846   118663953.492      -11186.516          49.000  
G22  24004701.654   126145535.636      -11309.678          48.000  
G21  26844231.558   141067370.269      -12086.166          44.000  
G23  22297041.761   117171751.390      -15062.976          49.000  
G24  26096944.767   137140365.699      -15825.552          44.000  
> 2022  2 14  0  2 29.0040000  0 10                     
G25  21730384.840   114193949.179      -12373.078          49.000  
G32  23055520.455   121157579.348      -11395.816          49.000  
G10  21258603.248   111714691.061      -12722.701          49.000  
G12  23713984.641   124617804.900      -14492.461          48.000  
G18  26201278.415   137688637.890      -15573.700          43.000  
G31  22583128.662   118675140.751      -11188.588          49.000  
G22  24006853.981   126156845.724      -11311.148          48.000  
G21  26846531.675   141079457.095      -12088.082          44.000  
G23  22299908.010   117186815.109      -15065.024          49.000  
G24  26099956.461   137156191.705      -15827.126          44.000  
> 2022  2 14  0  2 30.0040000  0 10                     
G25  21732740.317   114206325.760      -12375.919          49.000  
G32  23057689.480   121168978.326      -11397.963          49.000  
G10  21261025.016   111727417.278      -12725.667          49.000  
G12  23716743.140   124632300.837      -14495.194          48.000  
G18  26204242.602   137704214.656      -15575.680          43.000  
G31  22585258.661   118686332.698      -11191.157          49.000  
G22  24009007.122   126168160.008      -11313.257          48.000  
G21  26848832.651   141091548.566      -12090.685          44.000  
G23  22302775.038   117201883.587      -15067.770          49.000  
G24  26102968.862   137172021.835      -15829.043          44.000  
> 2022  2 14  0  2 31.0040000  0 10                     
G25  21735095.013   114218700.415      -12375.959          49.000  
G32  23059857.999   121180374.698      -11397.386          49.000  
G10  21263446.387   111740141.531      -12725.503          49.000  
G12  23719501.269   124646794.761      -14495.321          48.000  
G18  26207206.287   137719788.545      -15574.729          43.000  
G31  22587387.900   118697522.466      -11190.978          49.000  
G22  24011159.788   126179471.625      -11312.650          48.000  
G21  26851133.142   141103637.802      -12090.539          44.000  
G23  22305641.682   117216949.939      -15067.664          49.000  
G24  26105980.738   137187849.223      -15828.480          44.000  
> 2022  2 14  0  2 32.0040000  0 10                     
G25  21737449.249   114231075.801      -12375.990          49.000  
G32  23062026.763   121191771.121      -11396.517          49.000  
G10  21265867.908   111752866.496      -12725.396          49.000  
G12  23722259.548   124661289.305      -14494.998          48.000  
G18  26210169.849   137735362.223      -15573.656          43.000  
G31  22589517.065   118708712.709      -11190.540          49.000  
G22  24013312.410   126190783.210      -11311.733          48.000  
G21  26853433.686   141115727.468      -12090.006          44.000  
G23  22308509.088   117232016.821      -15067.217          49.000  
G24  26108992.640   137203676.514      -15827.300          44.000  
> 2022  2 14  0  2 33.0040000  0 10                     
G25  21739804.971   114243452.656      -12376.761          49.000  
G32  23064195.394   121203168.341      -11396.794          49.000  
G10  21268289.696   111765592.856      -12726.164          49.000  
G12  23725018.048   124675785.238      -14495.805          48.000  
G18  26213133.529   137750936.433      -15573.617          43.000  
G31  22591646.951   118719904.179      -11191.242          49.000  
G22  24015465.172   126202095.529      -11311.853          48.000  
G21  26855734.526   141127818.317      -12090.755          44.000  
G23  22311376.039   117247084.997      -15067.979          49.000  
G24  26112004.565   137219504.469      -15827.433          44.000  
> 2022  2 14  0  2 34.0040000  0 10                     
G25  21742160.208   114255828.647      -12375.624          49.000  
G32  23066363.881   121214564.016      -11394.967          49.000  
G10  21270711.309   111778318.325      -12724.521          49.000  
G12  23727776.383   124690280.210      -14494.602          48.000  
G18  26216096.812   137766508.837      -15571.615          43.000  
G31  22593776.327   118731094.529      -11189.909          49.000  
G22  24017617.592   126213406.231      -11309.996          48.000  
G21  26858035.071   141139907.985      -12089.327          44.000  
G23  22314243.283   117262152.116      -15066.699          49.000  
G24  26115016.270   137235330.743      -15825.560          44.000  
> 2022  2 14  0  2 35.0040000  0 10                     
G25  21744514.741   114268202.583      -12370.707          49.000  
G32  23068531.968   121225956.952      -11389.218          49.000  
G10  21273132.506   111791041.729      -12720.596          49.000  
G12  23730534.292   124704773.030      -14489.471          48.000  
G18  26219059.588   137782078.236      -15565.586          43.000  
G31  22595905.035   118742282.564      -11184.591          49.000  
G22  24019769.469   126224714.130      -11304.231          48.000  
G21  26860335.233   141151995.294      -12083.876          44.000  
G23  22317110.028   117277216.976      -15061.414          49.000  
G24  26118027.381   137251154.135      -15819.633          44.000  
> 2022  2 14  0  2 36.0040000  0 10                     
G25  21746868.916   114280576.884      -12375.765          49.000  
G32  23070699.860   121237349.580      -11393.621          49.000  
G10  21275553.811   111803765.435      -12725.015          49.000  
G12  23733292.271   124719266.125      -14494.477          48.000  
G18  26222022.261   137797647.069      -15569.986          43.000  
G31  22598034.279   118753470.720      -11189.472          49.000  
G22  24021921.243   126236021.641      -11308.521          48.000  
G21  26862635.365   141164082.668      -12088.570          44.000  
G23  22319977.115   117292282.023      -15066.472          49.000  
G24  26121038.405   137266977.083      -15823.937          44.000  
> 2022  2 14  0  2 37.0040000  0 10                     
G25  21749224.014   114292954.026      -12378.049          49.000  
G32  23072868.257   121248744.376      -11395.486          49.000  
G10  21277975.626   111816491.939      -12727.125          49.000  
G12  23736050.748   124733761.972      -14496.812          48.000  
G18  26224985.292   137813217.784      -15571.155          43.000  
G31  22600163.860   118764661.465      -11191.627          49.000  
G22  24024073.451   126247331.254      -11310.195          48.000  
G21  26864936.002   141176172.587      -12090.718          44.000  
G23  22322844.896   117307349.721      -15068.725          49.000  
G24  26124049.848   137282802.057      -15825.510          44.000  
> 2022  2 14  0  2 38.0040000  0 11                     
G25  21751578.331   114305331.718      -12377.538          49.000  
G32  23075036.833   121260139.034      -11394.186          49.000  
G26  25619435.088   134631039.4212      -9013.530          45.000  
G10  21280397.549   111829218.980      -12727.126          49.000  
G12  23738809.283   124748258.264      -14496.098          48.000  
G18  26227948.311   137828788.103      -15569.705          43.000  
G31  22602293.182   118775852.499      -11190.757          49.000  
G22  24026225.605   126258640.664      -11308.921          48.000  
G21  26867236.724   141188262.760      -12089.990          44.000  
G23  22325713.214   117322417.760      -15067.790          49.000  
G24  26127061.163   137298626.761      -15824.271          44.000  
> 2022  2 14  0  2 39.0040000  0 10                     
G25  21753933.885   114317709.784      -12379.635          49.000  
G32  23077205.162   121271533.393      -11395.722          49.000  
G10  21282819.536   111841946.328      -12729.186          49.000  
G12  23741567.869   124762754.841      -14498.181          48.000  
G18  26230911.146   137844357.861      -15570.869          43.000  
G31  22604422.769   118787043.663      -11192.734          49.000  
G22  24028377.649   126269949.692      -11310.241          48.000  
G21  26869537.489   141200352.994      -12091.715          44.000  
G23  22328580.985   117337485.993      -15069.830          49.000  
G24  26130072.460   137314451.017      -15825.514          44.000  
> 2022  2 14  0  2 40.0040000  0 10                     
G25  21756289.623   114330087.448      -12376.594          49.000  
G32  23079373.214   121282926.668      -11391.932          49.000  
G10  21285241.392   111854673.240      -12725.751          49.000  
G12  23744326.410   124777250.922      -14495.039          48.000  
G18  26233873.664   137859926.274      -15566.913          43.000  
G31  22606552.307   118798234.167      -11189.387          49.000  
G22  24030529.443   126281257.578      -11306.395          48.000  
G21  26871838.099   141212442.519      -12088.215          44.000  
G23  22331448.034   117352553.631      -15066.644          49.000  
G24  26133083.441   137330274.052      -15821.580          44.000  
> 2022  2 14  0  2 41.0040000  0 10                     
G25  21758644.970   114342464.022      -12374.393          49.000  
G32  23081541.070   121294318.165      -11388.840          49.000  
G10  21287663.053   111867399.048      -12724.239          49.000  
G12  23747084.690   124791745.811      -14492.573          48.000  
G18  26236835.893   137875492.638      -15563.609          43.000  
G31  22608681.444   118809423.318      -11186.688          49.000  
G22  24032680.894   126292563.618      -11303.340          48.000  
G21  26874138.400   141224530.649      -12085.612          44.000  
G23  22334314.730   117367619.972      -15063.901          49.000  
G24  26136094.101   137346095.169      -15818.309          44.000  
> 2022  2 14  0  2 42.0040000  0 10                     
G25  21761000.272   114354841.856      -12380.307          49.000  
G32  23083709.185   121305710.253      -11393.998          49.000  
G10  21290085.003   111880126.062      -12729.895          49.000  
G12  23749843.220   124806241.866      -14498.286          48.000  
G18  26239798.226   137891059.330      -15568.479          43.000  
G31  22610810.777   118820613.483      -11192.216          49.000  
G22  24034832.496   126303870.177      -11308.483          48.000  
G21  26876438.947   141236619.750      -12091.244          44.000  
G23  22337182.267   117382687.393      -15069.612          49.000  
G24  26139104.881   137361916.743      -15823.375          44.000  
> 2022  2 14  0  2 43.0040000  0 10                     
G25  21763356.455   114367222.316      -12381.297          49.000  
G32  23085877.362   121317104.295      -11394.479          49.000  
G10  21292507.402   111892855.650      -12730.440          49.000  
G12  23752602.269   124820740.466      -14499.353          48.000  
G18  26242760.776   137906627.704      -15568.594          43.000  
G31  22612940.563   118831806.035      -11193.186          49.000  
G22  24036984.479   126315178.619      -11308.873          48.000  
G21  26878739.858   141248711.173      -12091.968          44.000  
G23  22340050.135   117397757.254      -15070.564          49.000  
G24  26142115.932   137377740.132      -15823.810          44.000  
> 2022  2 14  0  2 44.0040000  0  9                     
G25  21765711.861   114379600.883      -12379.107          49.000  
G32  23088045.379   121328495.759      -11391.700          49.000  
G10  21294929.433   111905583.298      -12727.923          49.000  
G12  23755360.845   124835237.071      -14497.130          48.000  
G18  26245722.811   137922193.246      -15565.606          43.000  
G31  22615069.839   118842996.435      -11190.854          49.000  
G22  24039135.973   126326484.412      -11305.984          48.000  
G21  26881040.396   141260800.401      -12089.615          44.000  
G24  26145126.492   137393560.804      -15820.901          44.000  
> 2022  2 14  0  2 45.0040000  0  8                     
G25  21768067.369   114391980.402      -12377.171          49.000  
G32  23090213.167   121339887.488      -11388.771          49.000  
G10  21297351.644   111918311.900      -12726.242          49.000  
G12  23758119.732   124849734.529      -14494.929          48.000  
G18  26248684.887   137937758.790      -15562.717          43.000  
G22  24041287.508   126337790.402      -11303.212          48.000  
G21  26883341.044   141272890.275      -12087.221          44.000  
G24  26148137.194   137409381.598      -15817.995          44.000  
> 2022  2 14  0  2 46.0040000  0  8                     
G25  21770423.487   114404361.490      -12382.024          49.000  
G32  23092381.100   121351280.129      -11393.131          49.000  
G10  21299774.154   111931042.012      -12731.521          49.000  
G12  23760878.820   124864233.468      -14499.733          48.000  
G18  26251647.126   137953324.961      -15566.528          43.000  
G22  24043439.164   126349097.224      -11307.334          48.000  
G21  26885641.986   141284981.418      -12091.772          44.000  
G24  26151148.013   137425203.152      -15821.904          44.000  
> 2022  2 14  0  2 47.0040000  0  8                     
G25  21772779.538   114416741.053      -12380.491          49.000  
G32  23094548.437   121362670.545      -11391.062          49.000  
G10  21302196.348   111943770.535      -12729.387          49.000  
G12  23763637.521   124878730.781      -14498.271          48.000  
G18  26254608.773   137968888.659      -15564.271          43.000  
G22  24045590.384   126360401.764      -11305.135          48.000  
G21  26887942.537   141297070.729      -12090.060          44.000  
G24  26154158.311   137441022.365      -15819.826          44.000  
> 2022  2 14  0  2 48.0040000  0  8                     
G25  21775135.607   114429121.657      -12381.272          49.000  
G32  23096716.049   121374061.342      -11391.200          49.000  
G10  21304618.728   111956500.057      -12729.629          49.000  
G12  23766396.555   124893229.050      -14498.979          48.000  
G18  26257570.469   137984452.455      -15564.177          43.000  
G22  24047741.639   126371706.602      -11305.192          48.000  
G21  26890243.236   141309160.786      -12090.477          44.000  
G24  26157168.630   137456841.804      -15819.799          44.000  
> 2022  2 14  0  2 49.0040000  0 10                     
G25  21777491.732   114441502.921      -12380.864          49.000  
G32  23098883.565   121385452.095      -11389.916          49.000  
G10  21307041.255   111969230.251      -12729.758          49.000  
G12  23769155.635   124907727.861      -14498.189          48.000  
G18  26260532.166   138000015.954      -15562.572          43.000  
G23  22357258.015   117488183.6733     -15068.848          49.000  
G22  24049892.832   126383011.341      -11303.920          48.000  
G21  26892543.948   141321251.193      -12089.753          44.000  
G31  22625580.057   118898224.8153     -11191.137          49.000  
G24  26160178.977   137472661.061      -15818.281          44.000  
> 2022  2 14  0  2 50.0040000  0 10                     
G25  21779848.544   114453885.750      -12383.389          49.000  
G32  23101051.285   121396843.756      -11391.771          49.000  
G10  21309464.052   111981961.939      -12732.282          49.000  
G12  23771914.950   124922228.165      -14500.748          48.000  
G18  26263493.980   138015580.083      -15564.202          43.000  
G23  22360123.773   117503254.5482     -15071.254          49.000  
G22  24052044.200   126394316.909      -11305.727          48.000  
G21  26894844.972   141333342.878      -12092.138          44.000  
G31  22627710.923   118909417.9642     -11193.538          49.000  
G24  26163189.461   137488481.093      -15820.091          44.000  
> 2022  2 14  0  2 51.0040000  0 10                     
G25  21782205.318   114466269.658      -12382.469          49.000  
G32  23103218.967   121408235.817      -11390.420          49.000  
G10  21311887.043   111994694.673      -12731.206          49.000  
G12  23774674.523   124936729.445      -14499.897          48.000  
G18  26266455.816   138031144.349      -15562.477          43.000  
G23  22362990.887   117518326.3122     -15070.299          49.000  
G22  24054195.599   126405622.800      -11304.156          48.000  
G21  26897146.096   141345435.324      -12090.905          44.000  
G31  22629838.327   118920611.9322     -11192.494          49.000  
G24  26166199.944   137504301.373      -15818.473          44.000  
> 2022  2 14  0  2 52.0040000  0 10                     
G25  21784561.632   114478651.673      -12383.808          49.000  
G32  23105386.422   121419625.290      -11390.902          49.000  
G10  21314309.685   112007425.481      -12732.405          49.000  
G12  23777433.663   124951228.731      -14501.037          48.000  
G18  26269417.078   138046705.773      -15562.765          43.000  
G23  22365861.334   117533395.9832     -15071.405          49.000  
G22  24056346.635   126416926.044      -11304.684          48.000  
G21  26899446.811   141357525.576      -12091.911          44.000  
G31  22631968.999   118931803.7502     -11193.517          49.000  
G24  26169209.946   137520118.940      -15818.960          44.000  
> 2022  2 14  0  2 53.0040000  0 10                     
G25  21786918.105   114491036.044      -12385.353          49.000  
G32  23107554.140   121431016.450      -11391.608          49.000  
G10  21316732.766   112020158.592      -12734.185          49.000  
G12  23780193.311   124965730.285      -14502.391          48.000  
G18  26272378.578   138062268.608      -15563.286          43.000  
G23  22368727.668   117548467.8232     -15072.729          49.000  
G22  24058498.002   126428230.905      -11305.387          48.000  
G21  26901747.933   141369617.885      -12093.162          44.000  
G31  22634097.855   118942997.6742     -11194.736          49.000  
G24  26172220.247   137535938.044      -15819.492          44.000  
> 2022  2 14  0  2 54.0040000  0 11                     
G25  21789274.738   114503420.419      -12383.624          49.000  
G32  23109721.899   121442406.945      -11389.515          49.000  
G26  25646871.629   134775219.7593      -9008.437          45.000  
G10  21319155.836   112032891.668      -12732.166          49.000  
G12  23782952.827   124980231.746      -14500.687          48.000  
G18  26275339.965   138077830.500      -15560.673          43.000  
G23  22371596.076   117563539.4712     -15070.904          49.000  
G22  24060649.224   126439535.019      -11303.072          48.000  
G21  26904049.045   141381709.898      -12091.229          44.000  
G31  22636228.105   118954191.3502     -11192.869          49.000  
G24  26175230.416   137551756.345      -15817.241          44.000  
> 2022  2 14  0  2 55.0040000  0 10                     
G25  21791631.311   114515803.908      -12385.840          49.000  
G32  23111889.172   121453795.866      -11390.876          49.000  
G26  25648586.939   134784227.4612      -9009.623          45.000  
G10  21321578.731   112045623.850      -12734.516          49.000  
G12  23785712.176   124994732.228      -14502.794          48.000  
G18  26278301.004   138093390.565      -15561.887          43.000  
G22  24062799.955   126450837.496      -11304.473          48.000  
G21  26906349.888   141393800.715      -12092.925          44.000  
G31  22638358.133   118965383.8882     -11194.767          49.000  
G24  26178240.267   137567572.933      -15818.623          44.000  
> 2022  2 14  0  2 56.0040000  0 10                     
G25  21793987.916   114528187.422      -12380.748          49.000  
G32  23114056.289   121465184.159      -11385.759          49.000  
G26  25650301.299   134793234.499       -9004.420          45.000  
G10  21324001.594   112058355.966      -12729.096          49.000  
G12  23788471.498   125009232.646      -14497.976          48.000  
G18  26281261.807   138108949.721      -15556.316          43.000  
G23  22377336.411   117593696.4503     -15068.005          49.000  
G22  24064950.661   126462139.261      -11298.935          48.000  
G21  26908650.641   141405891.270      -12087.978          44.000  
G24  26181249.939   137583388.741      -15813.063          44.000  
> 2022  2 14  0  2 57.0040000  0 10                     
G25  21796344.812   114540571.668      -12386.014          49.000  
G32  23116223.518   121476572.454      -11390.077          49.000  
G26  25652015.004   134802241.515       -9008.459          45.000  
G10  21326424.616   112071088.825      -12734.695          49.000  
G12  23791231.021   125023733.669      -14502.839          48.000  
G18  26284222.613   138124508.631      -15560.351          43.000  
G23  22380200.186   117608767.3622     -15072.710          49.000  
G22  24067101.371   126473440.981      -11303.292          48.000  
G21  26910951.500   141417982.221      -12092.669          44.000  
G24  26184259.590   137599204.423      -15817.123          44.000  
> 2022  2 14  0  2 58.0040000  0 11                     
G25  21798701.602   114552957.011      -12381.972          49.000  
G32  23118390.591   121487961.203      -11384.914          49.000  
G26  25653728.695   134811248.966       -9003.599          45.000  
G10  21328847.826   112083822.728      -12730.468          49.000  
G12  23793990.672   125038235.721      -14498.515          48.000  
G18  26287183.464   138140067.711      -15555.059          43.000  
G23  22383068.021   117623839.2142     -15068.369          49.000  
G22  24069252.184   126484743.072      -11298.244          48.000  
G21  26913252.539   141430074.000      -12088.182          44.000  
G31  22644748.347   118998955.6093     -11190.082          49.000  
G24  26187269.268   137615020.416      -15812.154          44.000  
> 2022  2 14  0  2 59.0040000  0 11                     
G25  21801056.543   114565337.910      -12378.650          49.000  
G32  23120557.034   121499344.813      -11381.174          49.000  
G26  25655441.848   134820251.252       -8999.860          45.000  
G10  21331270.182   112096552.140      -12727.103          49.000  
G12  23796749.425   125052733.226      -14495.355          48.000  
G18  26290143.179   138155621.402      -15551.072          43.000  
G23  22385939.082   117638906.4092     -15064.974          49.000  
G22  24071401.938   126496039.962      -11294.418          48.000  
G21  26915552.639   141442161.017      -12084.848          44.000  
G31  22646878.866   119010144.5382     -11186.675          49.000  
G24  26190278.013   137630831.135      -15808.189          44.000  
> 2022  2 14  0  3  0.0040000  0 10                     
G25  21803413.550   114577721.092      -12385.505          49.000  
G32  23122723.387   121510730.038      -11387.632          49.000  
G10  21333692.976   112109283.771      -12733.603          50.000  
G12  23799508.653   125067232.920      -14502.243          48.000  
G18  26293103.200   138171176.440      -15557.172          43.000  
G23  22388804.547   117653975.7152     -15071.976          49.000  
G22  24073552.039   126507338.383      -11300.448          48.000  
G21  26917853.224   141454250.022      -12091.572          44.000  
G31  22649014.630   119021335.5122     -11193.615          49.000  
G24  26193287.008   137646643.323      -15814.321          44.000  
> 2022  2 14  0  3  1.0040000  0 10                     
G25  21805770.346   114590109.271      -12388.670          49.000  
G32  23124890.745   121522119.579      -11389.805          49.000  
G10  21336116.708   112122020.405      -12736.828          49.000  
G12  23802268.783   125081737.510      -14505.074          48.000  
G18  26296064.058   138186735.505      -15559.229          43.000  
G23  22391673.802   117669049.7972     -15074.622          49.000  
G22  24075702.888   126518641.059      -11302.865          48.000  
G21  26920154.612   141466343.705      -12094.110          44.000  
G31  22651143.104   119032531.2052     -11196.150          49.000  
G24  26196296.765   137662459.686      -15816.561          44.000  
> 2022  2 14  0  3  2.0040000  0  9                     
G25  21808127.652   114602495.116      -12387.707          49.000  
G32  23127057.310   121533506.076      -11387.986          49.000  
G10  21338539.979   112134754.666      -12736.172          49.000  
G12  23805028.491   125096239.655      -14503.896          48.000  
G18  26299024.275   138202291.289      -15557.163          43.000  
G22  24077853.181   126529940.635      -11301.040          48.000  
G21  26922455.520   141478434.750      -12092.756          44.000  
G31  22653271.949   119043724.305      -11194.820          49.000  
G24  26199305.914   137678272.876      -15814.581          44.000  
> 2022  2 14  0  3  3.0040000  0  9                     
G25  21810483.753   114614882.552      -12387.578          49.000  
G32  23129224.697   121544893.526      -11387.219          49.000  
G10  21340963.547   112147490.450      -12736.118          49.000  
G12  23807788.494   125110743.314      -14503.660          48.000  
G18  26301984.588   138217847.734      -15556.038          43.000  
G22  24080003.654   126541241.069      -11300.172          48.000  
G21  26924756.642   141490527.107      -12092.474          44.000  
G31  22655401.901   119054918.766      -11194.441          49.000  
G24  26202315.300   137694086.863      -15813.619          44.000  
> 2022  2 14  0  3  4.0040000  0  8                     
G25  21812841.377   114627268.756      -12390.006          49.000  
G32  23131391.263   121556279.066      -11389.137          49.000  
G10  21343386.880   112160224.971      -12738.098          49.000  
G12  23810548.212   125125245.650      -14506.146          48.000  
G18  26304944.487   138233402.005      -15557.651          43.000  
G22  24082153.671   126552539.523      -11301.896          48.000  
G21  26927057.440   141502617.912      -12094.544          44.000  
G24  26205324.181   137709898.801      -15815.432          44.000  
> 2022  2 14  0  3  5.0040000  0  8                     
G25  21815199.140   114639655.423      -12386.505          49.000  
G32  23133557.723   121567664.377      -11384.688          49.000  
G10  21345810.293   112172959.949      -12734.915          49.000  
G12  23813307.983   125139748.340      -14502.395          48.000  
G18  26307904.293   138248955.776      -15553.029          43.000  
G22  24084303.659   126563837.683      -11297.542          48.000  
G21  26929358.252   141514708.870      -12090.509          44.000  
G24  26208332.928   137725710.366      -15810.858          44.000  
> 2022  2 14  0  3  6.0040000  0  8                     
G25  21817555.600   114652042.552      -12382.290          49.000  
G32  23135724.096   121579049.468      -11380.041          49.000  
G10  21348233.767   112185695.288      -12730.430          49.000  
G12  23816067.903   125154251.402      -14498.241          48.000  
G18  26310864.022   138264509.073      -15548.046          43.000  
G22  24086453.518   126575135.563      -11292.674          48.000  
G21  26931659.144   141526800.002      -12086.134          44.000  
G24  26211341.693   137741521.589      -15806.056          44.000  
> 2022  2 14  0  3  7.0040000  0  8                     
G25  21819912.174   114664426.318      -12388.631          49.000  
G32  23137889.970   121590430.518      -11385.276          49.000  
G10  21350656.640   112198427.298      -12736.836          50.000  
G12  23818827.139   125168750.999      -14504.316          48.000  
G18  26313822.891   138280058.048      -15553.170          43.000  
G22  24088602.691   126586429.318      -11298.040          48.000  
G21  26933959.359   141538887.443      -12091.388          44.000  
G24  26214349.728   137757328.619      -15811.376          44.000  
> 2022  2 14  0  3  8.0040000  0  8                     
G25  21822269.568   114676816.455      -12386.519          49.000  
G32  23140056.860   121601817.273      -11382.831          49.000  
G10  21353080.711   112211165.568      -12734.471          49.000  
G12  23821587.519   125183256.874      -14502.298          48.000  
G18  26316782.754   138295612.466      -15550.330          43.000  
G22  24090752.986   126597728.712      -11295.437          48.000  
G21  26936260.761   141550980.980      -12089.478          44.000  
G24  26217358.819   137773141.204      -15808.626          44.000  
> 2022  2 14  0  3  9.0040000  0 11                     
G25  21824626.964   114689202.684      -12386.632          49.000  
G32  23142223.029   121613199.423      -11382.232          49.000  
G26  25672573.039                3      -9000.509          45.000  
G10  21355504.025   112223899.924      -12734.618          49.000  
G12  23824347.231   125197758.740      -14502.220          48.000  
G18  26319741.760   138311162.006      -15549.382          43.000  
G23  22414794.452   117790539.5093     -15070.890          49.000  
G22  24092902.323   126609023.432      -11294.662          48.000  
G21  26938561.274   141563070.301      -12089.507          44.000  
G31  22668173.192   119122053.1833     -11191.978          49.000  
G24  26220367.026   137788949.055      -15807.730          44.000  
> 2022  2 14  0  3 10.0040000  0 10                     
G25  21826984.167   114701589.063      -12386.902          49.000  
G32  23144388.944   121624581.053      -11381.745          49.000  
G10  21357927.354   112236634.383      -12734.793          49.000  
G12  23827106.936   125212260.655      -14502.358          48.000  
G18  26322700.641   138326710.781      -15548.934          43.000  
G23  22417665.710   117805610.0572     -15070.984          49.000  
G22  24095051.556   126620317.564      -11294.299          48.000  
G21  26940861.789   141575159.471      -12089.614          44.000  
G31  22670305.189   119133244.8062     -11192.109          49.000  
G24  26223375.059   137804756.253      -15807.425          44.000  
> 2022  2 14  0  3 11.0040000  0 10                     
G25  21829342.006   114713974.633      -12384.411          49.000  
G32  23146554.259   121635961.196      -11378.604          49.000  
G10  21360350.514   112249368.005      -12732.715          49.000  
G12  23829866.376   125226761.674      -14499.819          48.000  
G18  26325659.162   138342257.764      -15545.336          43.000  
G23  22420527.634   117820679.5902     -15068.308          49.000  
G22  24097200.493   126631610.129      -11290.990          48.000  
G21  26943162.099   141587247.520      -12086.720          44.000  
G31  22672439.640   119144435.3592     -11189.270          49.000  
G24  26226382.789   137820561.801      -15803.979          44.000  
> 2022  2 14  0  3 12.0040000  0 10                     
G25  21831698.732   114726359.165      -12386.988          49.000  
G32  23148719.479   121647339.626      -11380.642          49.000  
G10  21362773.475   112262100.558      -12734.882          49.000  
G12  23832625.631   125241261.556      -14502.368          48.000  
G18  26328617.328   138357802.783      -15546.996          43.000  
G23  22423393.667   117835747.8922     -15070.627          49.000  
G22  24099349.074   126642900.915      -11292.916          48.000  
G21  26945462.099   141599334.226      -12089.022          44.000  
G31  22674569.627   119155624.6252     -11191.590          49.000  
G24  26229390.143   137836365.498      -15805.757          44.000  
> 2022  2 14  0  3 13.0040000  0 11                     
G25  21834056.081   114738747.797      -12388.844          49.000  
G32  23150885.537   121658721.468      -11381.760          49.000  
G26  25679426.023   134946293.8832      -9000.147          45.000  
G10  21365197.212   112274837.148      -12736.709          49.000  
G12  23835385.683   125255765.434      -14504.125          48.000  
G18  26331576.113   138373350.954      -15548.066          43.000  
G23  22426268.423   117850820.1022     -15072.418          49.000  
G22  24101498.366   126654195.045      -11294.025          48.000  
G21  26947762.848   141611424.734      -12090.603          44.000  
G31  22676696.094   119166817.7382     -11193.234          49.000  
G24  26232398.145   137852172.481      -15806.877          44.000  
> 2022  2 14  0  3 14.0040000  0 11                     
G25  21836413.629   114751135.893      -12390.632          49.000  
G32  23153051.166   121670102.119      -11383.229          49.000  
G26  25681138.962   134955292.7772      -9001.287          45.000  
G10  21367620.845   112287573.178      -12738.120          49.000  
G12  23838145.583   125270268.694      -14506.003          48.000  
G18  26334534.541   138388897.641      -15548.973          43.000  
G23  22429136.117   117865891.0881     -15074.180          49.000  
G22  24103647.417   126665487.901      -11295.247          48.000  
G21  26950063.402   141623514.404      -12092.191          44.000  
G31  22678826.576   119178009.5691     -11194.987          49.000  
G24  26235405.901   137867978.110      -15808.002          44.000  
> 2022  2 14  0  3 15.0040000  0 11                     
G25  21838770.326   114763521.894      -12384.839          49.000  
G32  23155216.322   121681479.958      -11376.455          49.000  
G26  25682851.171   134964288.8512      -8994.607          45.000  
G10  21370044.034   112300307.105      -12733.154          49.000  
G12  23840904.970   125284769.732      -14499.804          48.000  
G18  26337492.427   138404441.268      -15542.062          43.000  
G23  22432003.657   117880960.250      -15067.807          49.000  
G22  24105795.888   126676777.888      -11288.546          48.000  
G21  26952363.533   141635601.663      -12085.699          44.000  
G31  22680955.912   119189199.521      -11188.564          49.000  
G24  26238413.094   137883780.798      -15800.957          44.000  
> 2022  2 14  0  3 16.0040000  0 10                     
G25  21841127.140   114775908.176      -12383.758          49.000  
G32  23157381.379   121692857.408      -11374.390          49.000  
G26  25684562.481   134973284.5062      -8992.474          45.000  
G10  21372467.294   112313041.251      -12732.470          50.000  
G12  23843664.457   125299270.970      -14498.496          48.000  
G18  26340450.266   138419984.228      -15539.681          43.000  
G23  22434871.028   117896029.515      -15066.266          49.000  
G22  24107944.272   126688067.417      -11286.529          48.000  
G21  26954663.692   141647688.906      -12084.266          44.000  
G24  26241420.156   137899582.961      -15798.938          44.000  
> 2022  2 14  0  3 17.0040000  0 10                     
G25  21843483.631   114788295.006      -12392.664          50.000  
G32  23159546.577                      -11383.111          49.000  
G26  25686274.293   134982280.0282      -9001.041          45.000  
G10  21374890.674                      -12741.242          50.000  
G12  23846424.063   125313772.671      -14507.526          48.000  
G18  26343408.013   138435526.822      -15548.014          43.000  
G23  22437738.565   117911099.160      -15075.408          49.000  
G22  24110092.698   126699356.758      -11294.822          48.000  
G21  26956963.892   141659776.402      -12093.097          44.000  
G24  26244427.158   137915384.879      -15807.348          44.000  
> 2022  2 14  0  3 18.0040000  0 11                     
G25  21845842.104   114800686.809      -12391.032          49.000  
G32  23161712.142   121715616.359      -11380.356          49.000  
G26  25687986.960   134991279.7902      -8998.533          45.000  
G10  21377314.959   112338515.425      -12738.739          49.000  
G12  23849184.629   125328279.227      -14505.711          48.000  
G18  26346366.426   138451073.409      -15545.295          43.000  
G23  22440607.062   117926173.554      -15073.560          49.000  
G22  24112241.828   126710650.304      -11292.312          48.000  
G21  26959264.964   141671868.552      -12091.165          44.000  
G31  22687484.841   119223537.3343     -11194.062          49.000  
G24  26247434.928   137931190.924      -15804.950          44.000  
> 2022  2 14  0  3 19.0040000  0 10                     
G25  21848199.938   114813076.509      -12391.910          49.000  
G32  23163877.472   121726995.221      -11380.776          49.000  
G10  21379738.841   112351252.844      -12739.057          50.000  
G12  23851944.708   125342783.596      -14506.503          48.000  
G18  26349324.274   138466616.970      -15545.352          43.000  
G23  22443475.029   117941245.663      -15074.296          49.000  
G22  24114390.462   126721941.012      -11292.578          48.000  
G21  26961565.734   141683958.315      -12091.728          44.000  
G31  22689605.106   119234729.9962     -11194.813          49.000  
G24  26250442.191   137946994.055      -15805.082          44.000  
> 2022  2 14  0  3 20.0040000  0 10                     
G25  21850558.025   114825468.763      -12390.603          49.000  
G32  23166042.994   121738375.935      -11378.775          49.000  
G10  21382163.223   112363992.846      -12738.525          49.000  
G12  23854705.227   125357290.416      -14505.128          48.000  
G18  26352282.436   138482162.117      -15542.982          43.000  
G23  22446343.487   117956320.118      -15072.717          49.000  
G22  24116539.363   126733233.513      -11290.456          48.000  
G21  26963866.774   141696050.312      -12090.094          44.000  
G31  22691748.285   119245924.4461     -11193.148          49.000  
G24  26253449.743   137962798.910      -15802.807          44.000  
> 2022  2 14  0  3 21.0040000  0  9                     
G25  21852915.565   114837859.009      -12391.281          49.000  
G32  23168208.249   121749753.967      -11378.767          49.000  
G10  21384587.194   112376730.718      -12738.485          49.000  
G12  23857465.375   125371795.129      -14505.695          48.000  
G18  26355239.983   138497704.327      -15542.882          43.000  
G22  24118687.780   126744523.264      -11290.438          48.000  
G21  26966167.348   141708140.006      -12090.504          44.000  
G31  22693874.555   119257117.141      -11193.673          49.000  
G24  26256456.758   137978600.939      -15802.657          44.000  
> 2022  2 14  0  3 22.0040000  0  9                     
G25  21855273.275   114850250.184      -12391.744          49.000  
G32  23170373.458   121761132.251      -11378.628          49.000  
G10  21387011.334   112389469.520      -12739.143          49.000  
G12  23860225.736   125386300.680      -14506.195          48.000  
G18  26358197.538   138513246.501      -15542.375          43.000  
G22  24120836.171   126755813.196      -11290.217          48.000  
G21  26968468.068   141720230.320      -12090.779          44.000  
G31  22696004.991   119268310.512      -11193.913          49.000  
G24  26259463.840   137994403.080      -15802.386          44.000  
> 2022  2 14  0  3 23.0040000  0  9                     
G25  21857631.891   114862641.230      -12390.010          49.000  
G32  23172538.433   121772509.721      -11376.129          49.000  
G10  21389435.445   112402208.170      -12738.229          50.000  
G12  23862986.022   125400805.992      -14504.266          48.000  
G18  26361154.950   138528787.599      -15539.692          44.000  
G22  24122984.434   126767102.237      -11287.617          48.000  
G21  26970768.617   141732320.195      -12088.599          44.000  
G31  22698135.356   119279503.493      -11191.880          49.000  
G24  26262470.748   138010204.267      -15799.734          44.000  
> 2022  2 14  0  3 24.0040000  0  9                     
G25  21859990.551   114875034.649      -12394.223          49.000  
G32  23174703.847   121783888.880      -11379.464          49.000  
G10  21391860.022   112414949.115      -12741.936          49.000  
G12  23865746.708   125415313.581      -14508.291          48.000  
G18  26364112.608   138544330.121      -15542.845          43.000  
G22  24125133.075   126778392.903      -11291.008          48.000  
G21  26973069.700   141744412.147      -12092.545          44.000  
G31  22700265.977   119290698.592      -11195.744          49.000  
G24  26265477.834   138026007.005      -15803.032          44.000  
> 2022  2 14  0  3 25.0040000  0  9                     
G25  21862348.225   114887428.073      -12391.545          49.000  
G32  23176869.232   121795267.391      -11376.448          49.000  
G10  21394284.576   112427690.030      -12738.842          49.000  
G12  23868507.372   125429821.093      -14505.772          48.000  
G18  26367069.988   138559871.718      -15539.578          43.000  
G22  24127281.467   126789682.835      -11287.682          48.000  
G21  26975370.695   141756503.819      -12089.853          44.000  
G31  22702396.369   119301893.463      -11193.160          49.000  
G24  26268484.820   138041808.948      -15799.912          44.000  
> 2022  2 14  0  3 26.0040000  0 10                     
G25  21864706.125   114899820.758      -12395.257          49.000  
G32  23179034.213   121806644.458      -11379.239          49.000  
G23  22463374.721   118045830.7243     -15076.161          49.000  
G10  21396708.993   112440430.196      -12742.767          49.000  
G12  23871267.928   125444327.744      -14509.109          48.000  
G18  26370027.115   138575411.598      -15541.973          43.000  
G22  24129429.683   126800971.274      -11290.546          48.000  
G21  26977671.482   141768594.420      -12093.104          44.000  
G31  22704526.645   119313087.308      -11196.306          49.000  
G24  26271491.589   138057609.302      -15802.504          44.000  
> 2022  2 14  0  3 27.0040000  0 10                     
G25  21867064.364   114912214.042      -12396.556          49.000  
G32  23181199.302   121818021.452      -11379.918          49.000  
G23  22466243.028   118060904.8342     -15077.252          49.000  
G10  21399133.518   112453170.907      -12743.936          49.000  
G12  23874028.511   125458834.907      -14510.468          48.000  
G18  26372984.197   138590951.139      -15542.332          43.000  
G22  24131577.782   126812259.561      -11291.233          48.000  
G21  26979972.421   141780685.319      -12094.121          44.000  
G31  22706656.756   119324281.510      -11197.381          49.000  
G24  26274498.291   138073409.442      -15803.008          44.000  
> 2022  2 14  0  3 28.0040000  0 10                     
G25  21869423.059   114924610.156      -12395.271          49.000  
G32  23183364.800   121829400.600      -11377.960          49.000  
G23  22469116.913   118075981.5872     -15075.769          49.000  
G10  21401558.568   112465914.402      -12742.737          49.000  
G12  23876789.629   125473344.801      -14508.973          48.000  
G18  26375941.667   138606492.567      -15540.130          43.000  
G22  24133726.309   126823549.922      -11289.098          48.000  
G21  26982273.779   141792778.751      -12092.407          44.000  
G31  22708787.369   119335478.289      -11195.763          49.000  
G24  26277505.423   138089211.598      -15800.844          44.000  
> 2022  2 14  0  3 29.0040000  0 10                     
G25  21871781.696   114937005.132      -12394.185          49.000  
G32  23185530.042   121840777.929      -11376.142          49.000  
G23  22471983.967   118091056.9982     -15074.400          49.000  
G10  21403983.383   112478656.738      -12741.783          50.000  
G12  23879550.625   125487853.454      -14507.756          48.000  
G18  26378898.713   138622031.903      -15538.032          43.000  
G22  24135874.523   126834838.401      -11287.306          48.000  
G21  26984574.888   141804870.730      -12090.829          44.000  
G31  22710917.566   119346673.671      -11194.302          49.000  
G24  26280512.060   138105011.787      -15798.898          44.000  
> 2022  2 14  0  3 30.0040000  0 11                     
G25  21874140.527   114949399.783      -12392.117          49.000  
G32  23187694.984   121852154.254      -11373.348          49.000  
G23  22474850.695   118106131.8942     -15072.211          49.000  
G10  21406408.118   112491398.697      -12739.687          49.000  
G12  23882311.534   125502361.687      -14505.601          48.000  
G18  26381855.535   138637569.972      -15535.058          43.000  
G26  25708527.302   135099221.9033      -8991.259          45.000  
G22  24138022.574   126846125.805      -11284.505          48.000  
G21  26986875.815   141816962.090      -12088.632          44.000  
G31  22713048.250   119357868.482      -11192.056          49.000  
G24  26283518.554   138120810.840      -15796.122          44.000  
> 2022  2 14  0  3 31.0040000  0 11                     
G25  21876498.477   114961791.103      -12393.204          49.000  
G32  23189858.994   121863526.569      -11373.833          49.000  
G23  22477718.831   118121203.2482     -15073.058          49.000  
G10  21408832.239   112504137.289      -12740.370          49.000  
G12  23885071.697   125516866.487      -14506.617          48.000  
G18  26384811.529   138653103.747      -15535.148          43.000  
G26  25710239.420   135108212.0182      -8991.558          45.000  
G22  24140169.741   126857409.118      -11284.772          48.000  
G21  26989176.053   141829049.815      -12089.540          44.000  
G31  22715177.845   119369059.698      -11192.912          49.000  
G24  26286524.283   138136605.723      -15796.173          44.000  
> 2022  2 14  0  3 32.0040000  0 10                     
G25  21878857.012   114974185.028      -12394.659          49.000  
G32  23192023.307   121874900.809      -11374.483          49.000  
G10  21411256.838   112516878.452      -12742.312          49.000  
G12  23887832.391   125531373.793      -14507.859          48.000  
G18  26387767.851   138668639.182      -15535.487          43.000  
G26  25711951.074   135117204.045       -8992.247          45.000  
G22  24142317.258   126868694.296      -11285.443          48.000  
G21  26991476.695   141841139.840      -12090.631          44.000  
G31  22717307.970   119380253.272      -11194.082          49.000  
G24  26289530.289   138152402.408      -15796.917          44.000  
> 2022  2 14  0  3 33.0040000  0 10                     
G25  21881214.730   114986579.617      -12393.960          49.000  
G32  23194187.619   121886275.049      -11373.290          49.000  
G10  21413681.553   112529620.199      -12740.803          49.000  
G12  23890593.158   125545881.678      -14507.237          48.000  
G18  26390724.153   138684174.351      -15534.207          43.000  
G26  25713662.099   135126196.042       -8991.123          45.000  
G22  24144464.886   126879979.399      -11284.219          48.000  
G21  26993777.447   141853230.226      -12089.556          44.000  
G31  22719437.868   119391447.263      -11193.312          49.000  
G24  26292536.314   138168198.950      -15795.738          44.000  
> 2022  2 14  0  3 34.0040000  0 10                     
G25  21883574.174   114998975.740      -12396.119          49.000  
G32  23196351.998   121897650.131      -11374.820          49.000  
G10  21416106.554   112542363.486      -12743.317          49.000  
G12  23893354.229   125560390.986      -14509.314          48.000  
G18  26393680.526   138699710.085      -15535.312          43.000  
G26  25715373.604   135135188.850       -8992.578          45.000  
G22  24146612.608   126891265.267      -11285.524          48.000  
G21  26996078.489   141865321.840      -12091.516          44.000  
G31  22721568.603   119402642.520      -11195.168          49.000  
G24  26295542.415   138183996.171      -15796.842          44.000  
> 2022  2 14  0  3 35.0040000  0 10                     
G25  21885932.653   115011370.734      -12395.819          49.000  
G32  23198516.203   121909023.406      -11373.848          49.000  
G10  21418531.318   112555105.575      -12742.652          49.000  
G12  23896115.050   125574899.068      -14508.968          48.000  
G18  26396636.417   138715243.740      -15534.091          43.000  
G26  25717084.631   135144179.829       -8991.666          45.000  
G22  24148759.962   126902549.262      -11284.550          48.000  
G21  26998379.182   141877412.021      -12090.935          44.000  
G31  22723698.792   119413836.404      -11194.828          49.000  
G24  26298548.182   138199791.460      -15795.848          44.000  
> 2022  2 14  0  3 36.0040000  0 10                     
G25  21888291.573   115023765.570      -12395.788          49.000  
G32  23200680.248   121920395.839      -11372.992          49.000  
G10  21420956.052   112567847.509      -12743.007          49.000  
G12  23898875.821   125589406.885      -14508.688          48.000  
G18  26399592.200   138730776.290      -15532.991          43.000  
G26  25718795.431   135153169.943       -8990.747          45.000  
G22  24150907.124   126913832.349      -11283.770          48.000  
G21  27000679.784   141889501.745      -12090.693          44.000  
G31  22725828.845   119425029.860      -11194.285          49.000  
G24  26301553.775   138215585.773      -15795.104          43.000  
> 2022  2 14  0  3 37.0040000  0  9                     
G25  21890651.805   115036163.442      -12397.479          49.000  
G32  23202844.635   121931770.637      -11373.978          49.000  
G10  21423381.364   112580592.419      -12744.357          49.000  
G12  23901637.094   125603917.643      -14510.230          48.000  
G18  26402548.406   138746310.929      -15533.700          43.000  
G22  24153054.725   126925117.717      -11284.514          48.000  
G21  27002980.967   141901594.190      -12091.895          44.000  
G31  22727959.795   119436226.106      -11195.717          49.000  
G24  26304559.719   138231382.272      -15795.623          44.000  
> 2022  2 14  0  3 38.0040000  0 10                     
G25  21893010.869   115048559.976      -12396.082          49.000  
G32  23205008.818   121943143.417      -11371.954          49.000  
G23  22497795.123   118226710.9123     -15074.623          49.000  
G10  21425806.413   112593335.951      -12742.823          49.000  
G12  23904398.194   125618426.968      -14508.807          48.000  
G18  26405504.166   138761843.275      -15531.290          43.000  
G22  24155201.925   126936401.006      -11282.502          48.000  
G21  27005281.786   141913684.989      -12090.170          44.000  
G31  22730090.223   119447420.753      -11193.994          49.000  
G24  26307565.347   138247176.628      -15793.259          43.000  
> 2022  2 14  0  3 39.0040000  0 10                     
G25  21895369.658   115060956.775      -12397.820          49.000  
G32  23207172.910   121954515.783      -11373.085          49.000  
G23  22500669.093   118241786.1692     -15076.165          49.000  
G10  21428231.516   112606079.696      -12744.762          49.000  
G12  23907159.269   125632936.458      -14510.524          48.000  
G18  26408459.734   138777374.941      -15532.131          43.000  
G22  24157349.018   126947683.802      -11283.532          48.000  
G21  27007582.578   141925775.762      -12091.723          44.000  
G31  22732220.584   119458615.420      -11195.632          49.000  
G24  26310570.836   138262970.438      -15794.347          44.000  
> 2022  2 14  0  3 40.0040000  0 10                     
G25  21897729.028   115073354.219      -12397.919          49.000  
G32  23209336.903   121965888.119      -11372.549          49.000  
G23  22503533.777   118256861.8882     -15076.216          49.000  
G10  21430656.739   112618824.074      -12745.088          49.000  
G12  23909920.473   125647446.488      -14510.514          48.000  
G18  26411415.264   138792906.312      -15531.571          43.000  
G22  24159496.120   126958966.496      -11282.897          48.000  
G21  27009883.506   141937866.864      -12091.347          44.000  
G31  22734351.028   119469810.474      -11195.570          49.000  
G24  26313576.367   138278764.075      -15793.846          43.000  
> 2022  2 14  0  3 41.0040000  0 11                     
G25  21900089.027   115085753.261      -12396.722          49.000  
G32  23211500.916   121977261.359      -11370.457          49.000  
G23  22506403.004   118271938.9882     -15074.564          49.000  
G10  21433082.230   112631570.003      -12743.935          49.000  
G12  23912681.945   125661958.014      -14509.097          48.000  
G18  26414370.901   138808438.311      -15529.131          44.000  
G26  25727347.195   135198121.4683      -8988.000          45.000  
G22  24161643.392   126970250.029      -11280.735          48.000  
G21  27012184.592   141949959.260      -12089.774          44.000  
G31  22736481.662   119481006.857      -11193.771          49.000  
G24  26316581.955   138294558.470      -15791.619          44.000  
> 2022  2 14  0  3 42.0040000  0 11                     
G25  21902448.509   115098151.027      -12399.194          49.000  
G32  23213664.672   121988632.663      -11372.428          49.000  
G23  22509270.685   118287014.6372     -15077.140          49.000  
G10  21435507.485   112644314.580      -12745.823          50.000  
G12  23915443.175   125676468.174      -14511.654          48.000  
G18  26417326.203   138823968.098      -15530.823          43.000  
G26  25729060.013   135207110.3002      -8990.108          45.000  
G22  24163790.248   126981531.549      -11282.668          48.000  
G21  27014485.440   141962050.090      -12092.220          44.000  
G31  22738612.001   119492201.732      -11196.301          49.000  
G24  26319587.201   138310350.784      -15793.530          44.000  
> 2022  2 14  0  3 43.0040000  0 11                     
G25  21904808.191   115110550.892      -12401.978          49.000  
G32  23215828.757   122000005.367      -11374.287          49.000  
G23  22512139.744   118302092.1622     -15079.378          49.000  
G10  21437933.132   112657061.299      -12749.354          49.000  
G12  23918204.719   125690980.319      -14514.084          48.000  
G18  26420281.682   138839499.024      -15532.522          43.000  
G26  25730770.509   135216100.5032      -8991.826          45.000  
G22  24165937.368   126992814.410      -11284.627          48.000  
G21  27016786.633   141974142.704      -12094.657          44.000  
G31  22740742.563   119503398.427      -11198.480          49.000  
G24  26322592.595   138326144.351      -15795.186          43.000  
> 2022  2 14  0  3 44.0040000  0 10                     
G25  21907168.166   115122952.425      -12401.532          49.000  
G32  23217992.997   122011379.091      -11373.576          49.000  
G10  21440359.069   112669809.572      -12748.390          49.000  
G12  23920966.596   125705494.049      -14513.733          48.000  
G18  26423237.300   138855030.675      -15531.232          43.000  
G26  25732481.280   135225091.693       -8990.869          45.000  
G22  24168084.622   127004098.195      -11283.438          48.000  
G21  27019088.073   141986236.680      -12093.834          44.000  
G31  22742873.489   119514596.561      -11198.021          49.000  
G24  26325598.236   138341938.790      -15794.250          43.000  
> 2022  2 14  0  3 45.0040000  0 10                     
G25  21909527.441   115135352.614      -12399.646          49.000  
G32  23220157.120   122022750.765      -11370.775          49.000  
G10  21442784.758   112682556.486      -12746.774          49.000  
G12  23923728.183   125720006.325      -14511.708          48.000  
G18  26426192.430   138870560.019      -15528.268          43.000  
G26  25734191.949   135234080.825       -8988.281          45.000  
G22  24170231.451   127015379.875      -11280.798          48.000  
G21  27021389.151   141998329.008      -12091.604          44.000  
G31  22745003.984   119525793.082      -11195.934          49.000  
G24  26328603.414   138357731.039      -15791.253          43.000  
> 2022  2 14  0  3 46.0040000  0 11                     
G25  21911887.668   115147756.780      -12402.167          49.000  
G32  23222321.908   122034125.738      -11372.517          49.000  
G23  22520749.703   118347338.3773     -15079.025          49.000  
G10  21445211.205   112695307.351      -12749.223          49.000  
G12  23926490.554   125734522.471      -14513.924          48.000  
G18  26429148.166   138886092.403      -15530.020          43.000  
G26  25735903.121   135243073.221       -8989.854          45.000  
G22  24172378.858   127026664.783      -11282.479          48.000  
G21  27023690.974   142010425.005      -12093.783          44.000  
G31  22747135.182   119536993.316      -11198.009          49.000  
G24  26331609.216   138373526.451      -15792.757          43.000  
> 2022  2 14  0  3 47.0040000  0 11                     
G25  21914247.673   115160157.513      -12400.531          49.000  
G32  23224485.690   122045496.612      -11370.341          49.000  
G23  22523620.145   118362415.9932     -15077.312          49.000  
G10  21447636.981   112708054.712      -12747.398          49.000  
G12  23929252.256   125749035.097      -14512.417          48.000  
G18  26432103.126   138901620.400      -15527.409          43.000  
G26  25737613.526   135252061.498       -8987.788          45.000  
G22  24174525.497   127037945.515      -11280.241          48.000  
G21  27025992.054   142022517.272      -12092.018          44.000  
G31  22749265.623   119548189.871      -11196.229          49.000  
G24  26334614.211   138389317.611      -15790.401          43.000  
> 2022  2 14  0  3 48.0040000  0 10                     
G25  21916607.436   115172559.451      -12403.320          49.000  
G32  23226649.723   122056867.998      -11372.342          49.000  
G23  22526489.184   118377494.6072     -15079.882          49.000  
G10  21450062.982   112720803.257      -12749.943          49.000  
G12  23932014.141   125763548.816      -14515.008          48.000  
G18  26435058.098   138917148.636      -15528.989          43.000  
G22  24176672.258   127049226.692      -11282.206          48.000  
G21  27028293.194   142034610.425      -12094.296          44.000  
G31  22751396.589   119559387.375      -11198.723          49.000  
G24  26337619.203   138405109.147      -15792.271          44.000  
> 2022  2 14  0  3 49.0040000  0 10                     
G25  21918968.297   115184962.514      -12404.206          49.000  
G32  23228813.687   122068239.847      -11372.641          49.000  
G23  22529356.252   118392574.1572     -15080.585          49.000  
G10  21452489.191   112733552.890      -12750.387          49.000  
G12  23934776.228   125778063.570      -14515.819          48.000  
G18  26438013.075   138932677.069      -15529.215          43.000  
G22  24178819.131   127060508.249      -11282.321          48.000  
G21  27030594.664   142046704.417      -12095.050          44.000  
G31  22753527.626   119570585.753      -11199.399          49.000  
G24  26340624.333   138420901.002      -15792.413          44.000  
> 2022  2 14  0  3 50.0040000  0 10                     
G25  21921328.435   115197365.387      -12400.257          49.000  
G32  23230977.398   122079610.820      -11368.130          49.000  
G23  22532225.576   118407653.318      -15076.622          49.000  
G10  21454915.354   112746302.271      -12746.787          50.000  
G12  23937538.296   125792578.037      -14512.004          48.000  
G18  26440967.790   138948204.348      -15524.182          43.000  
G22  24180965.796   127071788.870      -11277.717          48.000  
G21  27032895.960   142058797.897      -12090.702          44.000  
G31  22755658.470   119581783.686      -11195.365          49.000  
G24  26343629.240   138436691.846      -15787.941          43.000  
> 2022  2 14  0  3 51.0040000  0 11                     
G25  21923687.899   115209767.061      -12399.029          49.000  
G32  23233140.857   122090979.907      -11366.036          49.000  
G23  22535095.196   118422731.058      -15074.812          49.000  
G10  21457341.304   112759050.480      -12746.118          49.000  
G12  23940300.076   125807091.186      -14510.373          48.000  
G18  26443922.138   138963729.473      -15521.961          43.000  
G26  25744455.092   135288024.1453      -8983.229          45.000  
G22  24183111.987   127083067.532      -11275.682          48.000  
G21  27035197.032   142070889.884      -12089.239          44.000  
G31  22757788.982   119592980.147      -11193.542          49.000  
G24  26346633.757   138452480.648      -15785.649          43.000  
> 2022  2 14  0  3 52.0040000  0 10                     
G25  21926047.564   115222168.403      -12401.837          49.000  
G32  23235304.365   122102347.988      -11368.077          49.000  
G10  21459767.179   112771798.245      -12748.323          49.000  
G12  23943061.813   125821603.915      -14513.120          48.000  
G18  26446876.254   138979253.322      -15523.778          43.000  
G26  25746165.332   135297009.5092      -8985.411          45.000  
G22  24185258.024   127094345.109      -11277.569          48.000  
G21  27037497.946   142082981.225      -12091.540          44.000  
G31  22759919.443   119604176.036      -11196.118          49.000  
G24  26349638.043   138468268.301      -15787.547          43.000  
> 2022  2 14  0  3 53.0040000  0 10                     
G25  21928408.607   115234574.839      -12406.170          49.000  
G32  23237468.561   122113720.494      -11371.945          49.000  
G10  21462193.982   112784551.082      -12752.105          49.000  
G12  23945824.455   125836121.638      -14517.497          48.000  
G18  26449831.121   138994781.325      -15527.411          43.000  
G26  25747875.863   135305999.2652      -8989.191          45.000  
G22  24187404.960   127105627.042      -11281.333          48.000  
G21  27039799.768   142095077.369      -12095.847          44.000  
G31  22762050.946   119615376.770      -11200.410          49.000  
G24  26352643.147   138484060.252      -15791.479          43.000  
> 2022  2 14  0  3 54.0040000  0 10                     
G25  21930769.335   115246979.245      -12402.765          49.000  
G32  23239632.212   122125090.280      -11367.787          49.000  
G10  21464620.404   112797301.897      -12749.616          49.000  
G12  23948586.746   125850637.223      -14513.860          48.000  
G18  26452785.417   139010306.326      -15522.928          43.000  
G26  25749586.317   135314986.2782      -8984.964          45.000  
G22  24189551.382   127116906.183      -11277.034          48.000  
G21  27042101.115   142107171.176      -12092.295          44.000  
G31  22764182.110   119626575.205      -11196.631          49.000  
G24  26355647.686   138499849.310      -15786.918          44.000  
> 2022  2 14  0  3 55.0040000  0 11                     
G25  21933129.719   115259380.513      -12405.554          49.000  
G32  23241795.277   122136456.251      -11369.841          49.000  
G23  22546570.397   118483026.8583     -15080.724          49.000  
G10  21467046.228   112810049.473      -12751.857          49.000  
G12  23951348.422   125865149.572      -14516.594          48.000  
G18  26455738.975   139025827.235      -15524.579          43.000  
G26  25751295.737   135323969.4512      -8987.031          45.000  
G22  24191697.073   127128181.440      -11279.074          48.000  
G21  27044401.864   142119261.515      -12094.407          44.000  
G31  22766312.736   119637770.249      -11199.132          49.000  
G24  26358651.538   138515634.427      -15788.822          43.000  
> 2022  2 14  0  3 56.0040000  0 11                     
G25  21935490.158   115271784.781      -12404.584          49.000  
G32  23243958.510   122147824.543      -11368.117          49.000  
G23  22549446.152   118498106.2122     -15079.447          49.000  
G10  21469472.617   112822800.053      -12751.005          49.000  
G12  23954110.574   125879664.819      -14515.415          48.000  
G18  26458692.875   139041350.207      -15522.689          43.000  
G26  25753005.623   135332954.922       -8985.226          45.000  
G22  24193843.193   127139458.945      -11277.342          48.000  
G21  27046703.153   142131354.563      -12092.951          44.000  
G31  22768443.692   119648968.039      -11197.880          49.000  
G24  26361655.782   138531421.722      -15787.097          44.000  
> 2022  2 14  0  3 57.0040000  0 10                     
G25  21937851.061   115284189.622      -12407.184          49.000  
G32  23246121.480   122159192.732      -11370.175          49.000  
G23  22552314.789   118513185.9472     -15082.000          49.000  
G10  21471899.102   112835551.137      -12753.125          49.000  
G12  23956872.846   125894180.539      -14517.956          48.000  
G18  26461646.768   139056872.794      -15524.382          43.000  
G22  24195989.273   127150736.279      -11279.364          48.000  
G21  27049004.463   142143447.890      -12095.477          44.000  
G31  22770574.949   119660166.150      -11200.321          49.000  
G24  26364660.009   138547208.763      -15788.935          44.000  
> 2022  2 14  0  3 58.0040000  0 10                     
G25  21940212.056   115296596.141      -12405.829          49.000  
G32  23248284.837   122170561.918      -11368.094          49.000  
G23  22555180.809   118528267.1512     -15080.393          49.000  
G10  21474325.896   112848303.872      -12752.158          49.000  
G12  23959635.432   125908697.837      -14516.459          48.000  
G18  26464600.726   139072396.107      -15522.015          43.000  
G22  24198135.539   127162014.530      -11277.141          48.000  
G21  27051306.027   142155542.582      -12093.792          44.000  
G31  22772706.365   119671365.680      -11198.648          49.000  
G24  26367664.324   138562996.666      -15786.779          44.000  
> 2022  2 14  0  3 59.0040000  0 10                     
G25  21942572.749   115309002.016      -12406.812          49.000  
G32  23250447.841   122181929.777      -11368.223          49.000  
G23  22558051.496   118543347.5082     -15080.953          49.000  
G10  21476752.587   112861055.950      -12753.169          49.000  
G12  23962397.876   125923214.387      -14517.297          48.000  
G18  26467554.466   139087917.819      -15521.888          43.000  
G22  24200281.601   127173291.387      -11277.291          48.000  
G21  27053607.396   142167636.320      -12094.357          44.000  
G31  22774837.592   119682564.303      -11199.164          49.000  
G24  26370668.412   138578783.092      -15786.795          44.000  
> 2022  2 14  0  4  0.0040000  0 10                     
G25  21944934.117   115321408.496      -12407.110          49.000  
G32  23252610.860   122193297.574      -11368.076          49.000  
G23  22560921.137   118558428.2852     -15081.254          49.000  
G10  21479179.356   112873808.551      -12753.349          49.000  
G12  23965160.515   125937731.439      -14517.447          48.000  
G18  26470508.168   139103439.225      -15522.161          43.000  
G22  24202427.478   127184568.105      -11277.039          48.000  
G21  27055908.815   142179730.362      -12094.526          44.000  
G31  22776968.869   119693763.290      -11199.435          49.000  
G24  26373672.363   138594569.306      -15786.283          44.000  
> 2022  2 14  0  4  1.0040000  0  9                     
G25  21947296.375   115333816.558      -12404.735          49.000  
G32  23254773.755   122204666.265      -11364.903          49.000  
G10  21481606.416   112886562.719      -12750.929          49.000  
G12  23967923.316   125952249.975      -14514.930          48.000  
G18  26473461.945   139118961.196      -15517.926          44.000  
G22  24204573.653   127195845.641      -11273.662          48.000  
G21  27058210.529   142191825.683      -12091.727          44.000  
G31  22779100.962   119704963.594      -11196.719          49.000  
G24  26376676.503   138610356.286      -15783.344          44.000  
> 2022  2 14  0  4  2.0040000  0 10                     
G25  21949657.722   115346223.160      -12408.038          48.000  
G32  23256936.100   122216032.822      -11367.661          48.000  
G10  21484033.203   112899315.364      -12754.237          49.000  
G12  23970685.813   125966766.956      -14518.409          48.000  
G18  26476415.224   139134480.796      -15520.473          43.000  
G26  25763263.633   135386863.7803      -8984.706          45.000  
G22  24206719.467   127207120.983      -11276.437          48.000  
G21  27060511.873   142203919.241      -12094.917          44.000  
G31  22781232.678   119716162.190      -11199.965          48.000  
G24  26379680.197   138626140.976      -15785.879          43.000  
> 2022  2 14  0  4  3.0040000  0 10                     
G25  21952018.577   115358627.405      -12401.727          48.000  
G32  23259098.004   122227396.340      -11360.667          48.000  
G10  21486459.540   112912065.632      -12747.551          49.000  
G12  23973447.913   125981281.466      -14511.965          48.000  
G18  26479367.857   139149997.077      -15513.284          43.000  
G26  25764972.942   135395844.3072      -8977.642          45.000  
G22  24208864.590   127218393.203      -11269.270          48.000  
G21  27062812.686   142216010.134      -12088.298          44.000  
G31  22783363.714   119727358.166      -11193.358          48.000  
G24  26382683.312   138641922.478      -15778.659          43.000  
> 2022  2 14  0  4  4.0040000  0 10                     
G25  21954379.834   115371031.345      -12406.043          48.000  
G32  23261259.814   122238758.869      -11364.201          48.000  
G10  21488885.820   112924815.563      -12752.272          49.000  
G12  23976209.974   125995795.575      -14516.066          48.000  
G18  26482320.255   139165512.087      -15516.609          43.000  
G26  25766682.151   135404823.8242      -8981.139          45.000  
G22  24211009.588   127229664.373      -11272.844          48.000  
G21  27065113.344   142228100.414      -12092.326          44.000  
G31  22785494.668   119738553.575      -11197.255          48.000  
G24  26385686.259   138657702.855      -15782.030          43.000  
> 2022  2 14  0  4  5.0040000  0 10                     
G25  21956741.677   115383438.679      -12412.518          48.000  
G32  23263422.001   122250124.129      -11370.195          48.000  
G10  21491312.710   112937568.829      -12758.201          49.000  
G12  23978972.625   126010312.983      -14522.611          48.000  
G18  26485273.146   139181029.563      -15522.375          43.000  
G26  25768391.153   135413806.0522      -8987.232          45.000  
G22  24213155.060   127240938.193      -11278.686          48.000  
G21  27067414.653   142240193.786      -12098.549          44.000  
G31  22787626.028   119749752.144      -11203.769          48.000  
G24  26388689.658   138673485.810      -15787.756          43.000  
> 2022  2 14  0  4  6.0040000  0 10                     
G25  21959103.181   115395848.620      -12405.719          48.000  
G32  23265584.758   122261491.302      -11362.667          48.000  
G10  21493740.084   112950324.678      -12751.740          49.000  
G12  23981735.730   126024832.892      -14515.742          48.000  
G18  26488226.385   139196548.671      -15514.382          43.000  
G26  25770100.939   135422790.1642      -8979.568          45.000  
G22  24215300.811   127252213.862      -11271.150          48.000  
G21  27069716.361   142252289.454      -12091.353          44.000  
G31  22789757.558   119760953.041      -11196.562          48.000  
G24  26391693.371   138689270.553      -15780.373          43.000  
> 2022  2 14  0  4  7.0040000  0 10                     
G25  21961464.449   115408255.128      -12409.882          48.000  
G32  23267746.753   122272854.371      -11366.190          48.000  
G10  21496166.844   112963077.068      -12755.731          49.000  
G12  23984498.137   126039349.251      -14519.725          48.000  
G18  26491178.779   139212063.407      -15517.656          43.000  
G26  25771809.801   135431770.1442      -8982.960          45.000  
G22  24217445.786   127263485.344      -11274.462          48.000  
G21  27072017.424   142264381.379      -12095.213          44.000  
G31  22791888.501   119772150.256      -11200.440          48.000  
G24  26394696.320   138705051.022      -15783.556          43.000  
> 2022  2 14  0  4  8.0040000  0  9                     
G25  21963827.523   115420665.060      -12411.072          48.000  
G32  23269908.892   122284220.182      -11366.663          48.000  
G10  21498594.204   112975832.814      -12756.906          49.000  
G12  23987261.230   126053868.945      -14520.789          48.000  
G18  26494131.574   139227580.602      -15517.639          43.000  
G22  24219591.331   127274759.502      -11274.932          48.000  
G21  27074319.015   142276476.427      -12095.983          44.000  
G31  22794020.731   119783350.644      -11201.415          48.000  
G24  26397699.784   138720834.100      -15783.810          43.000  
> 2022  2 14  0  4  9.0040000  0  9                     
G25  21966190.436   115433078.544      -12418.005          48.000  
G32  23272071.703   122295588.862      -11372.984          48.000  
G10  21501022.297   112988592.100      -12764.042          49.000  
G12  23990024.954   126068392.083      -14527.553          48.000  
G18  26497084.956   139243100.410      -15523.807          43.000  
G22  24221737.483   127286036.455      -11281.100          48.000  
G21  27076621.265   142288574.720      -12102.646          44.000  
G31  22796153.655   119794554.319      -11208.024          48.000  
G24  26400703.761   138736619.896      -15789.636          43.000  
> 2022  2 14  0  4 10.0040000  0 11                     
G25  21968553.267   115445496.185      -12413.817          48.000  
G32  23274235.391   122306961.022      -11368.061          48.000  
G26  25776939.639   135458731.9103      -8984.816          45.000  
G10  21503451.114   113001355.482      -12759.632          49.000  
G12  23992789.386   126082919.286      -14523.395          48.000  
G18  26500038.945   139258623.414      -15518.654          43.000  
G23  22589712.220   118709738.8633     -15085.989          49.000  
G22  24223884.214   127297316.824      -11276.226          48.000  
G21  27078924.233   142300676.870      -12098.250          44.000  
G31  22798286.765   119805761.904      -11203.630          48.000  
G24  26403708.333   138752409.041      -15784.901          43.000  
> 2022  2 14  0  4 11.0040000  0 11                     
G25  21970916.151   115457910.866      -12412.243          48.000  
G32  23276398.437   122318329.555      -11365.918          48.000  
G26  25778648.908   135467717.2622      -8982.520          45.000  
G10  21505879.359   113014115.882      -12758.156          49.000  
G12  23995553.306   126097443.423      -14521.729          48.000  
G18  26502992.146   139274142.514      -15516.438          43.000  
G23  22592583.281   118724825.6442     -15084.486          49.000  
G22  24226030.249   127308593.474      -11273.919          48.000  
G21  27081226.533   142312775.748      -12096.215          44.000  
G31  22800419.197   119816966.270      -11201.818          48.000  
G24  26406712.226   138768194.414      -15782.706          43.000  
> 2022  2 14  0  4 12.0040000  0 11                     
G25  21973278.870   115470325.564      -12415.869          48.000  
G32  23278561.442   122329697.410      -11368.910          48.000  
G26  25780359.051   135476701.9312      -8985.767          45.000  
G10  21508307.610   113026876.208      -12761.352          49.000  
G12  23998317.225   126111967.468      -14525.266          48.000  
G18  26505945.153   139289660.672      -15519.149          43.000  
G23  22595453.829   118739912.1982     -15087.596          49.000  
G22  24228176.179   127319869.394      -11276.916          48.000  
G21  27083528.806   142324874.342      -12099.692          44.000  
G31  22802551.736   119828170.400      -11205.394          48.000  
G24  26409716.019   138783978.962      -15785.526          43.000  
> 2022  2 14  0  4 13.0040000  0 11                     
G25  21975640.942   115482737.822      -12411.194          48.000  
G32  23280723.438   122341062.148      -11363.339          48.000  
G26  25782068.170   135485683.4432      -8980.145          45.000  
G10  21510735.400   113039634.123      -12756.993          49.000  
G12  24001080.644   126126488.970      -14520.342          48.000  
G18  26508897.544   139305175.428      -15513.280          43.000  
G23  22598323.820   118754996.1502     -15082.813          49.000  
G22  24230321.466   127331142.116      -11271.312          48.000  
G21  27085830.640   142336970.183      -12094.578          44.000  
G31  22804683.430   119839371.822      -11200.246          48.000  
G24  26412719.168   138799760.243      -15780.003          43.000  
> 2022  2 14  0  4 14.0040000  0 11                     
G25  21978003.858   115495153.379      -12415.862          49.000  
G32  23282886.274   122352429.509      -11367.197          48.000  
G26  25783777.882   135494667.0541      -8983.949          45.000  
G10  21513163.821   113052395.283      -12761.804          49.000  
G12  24003844.698   126141013.669      -14524.821          48.000  
G18  26511850.372   139320692.533      -15516.939          43.000  
G23  22601194.912   118770083.202      -15087.508          49.000  
G22  24232467.253   127342417.389      -11275.228          48.000  
G21  27088132.963   142349069.021      -12098.926          44.000  
G31  22806815.697   119850576.291      -11204.541          49.000  
G24  26415722.709   138815543.996      -15783.529          43.000  
> 2022  2 14  0  4 15.0040000  0 11                     
G25  21980366.215   115507568.565      -12412.708          48.000  
G32  23285048.898   122363795.817      -11363.357          48.000  
G26  25785487.365   135503650.096       -8980.043          45.000  
G10  21515592.130   113065156.013      -12758.255          49.000  
G12  24006608.605   126155537.897      -14521.569          48.000  
G18  26514802.942   139336208.306      -15512.664          43.000  
G23  22604065.790   118785169.657      -15083.785          49.000  
G22  24234612.816   127353691.535      -11271.241          48.000  
G21  27090435.237   142361167.187      -12095.521          44.000  
G31  22808948.117   119861780.134      -11201.105          48.000  
G24  26418725.953   138831326.559      -15779.477          43.000  
> 2022  2 14  0  4 16.0040000  0 10                     
G25  21982728.847   115519984.046      -12419.196          48.000  
G32  23287211.558   122375161.749      -11369.262          48.000  
G10  21518020.521   113077916.999      -12764.720          49.000  
G12  24009372.590   126170062.321      -14528.078          48.000  
G18  26517755.442   139351723.444      -15518.350          43.000  
G23  22606936.716   118800256.222      -15090.201          49.000  
G22  24236758.260   127364965.235      -11277.038          48.000  
G21  27092737.409   142373265.334      -12101.832          44.000  
G31  22811080.500   119872984.024      -11207.489          48.000  
G24  26421729.183   138847108.614      -15785.462          43.000  
> 2022  2 14  0  4 17.0040000  0 10                     
G25  21985091.671   115532401.389      -12416.053          48.000  
G32  23289374.355   122386528.859      -11365.415          48.000  
G10  21520449.251   113090679.832      -12762.213          49.000  
G12  24012136.892   126184588.498      -14524.782          48.000  
G18  26520708.062   139367239.472      -15514.203          43.000  
G23  22609807.933   118815344.440      -15087.050          49.000  
G22  24238903.948   127376240.037      -11273.102          48.000  
G21  27095039.976   142385365.041      -12098.264          44.000  
G31  22813212.980   119884189.507      -11203.976          48.000  
G24  26424732.583   138862891.678      -15781.365          44.000  
> 2022  2 14  0  4 18.0040000  0 11                     
G25  21987454.873   115544818.360      -12416.266          48.000  
G32  23291536.931   122397894.918      -11365.027          48.000  
G26  25790614.543   135530593.7553      -8981.629          45.000  
G10  21522877.892   113103442.240      -12761.471          49.000  
G12  24014901.086   126199114.199      -14524.954          48.000  
G18  26523660.419   139382754.180      -15513.593          43.000  
G23  22612679.063   118830432.106      -15086.945          49.000  
G22  24241049.401   127387513.722      -11272.695          48.000  
G21  27097342.304   142397464.073      -12098.389          44.000  
G31  22815345.533   119895394.369      -11204.006          49.000  
G24  26427735.838   138878673.554      -15780.821          43.000  
> 2022  2 14  0  4 19.0040000  0 11                     
G25  21989816.972   115557236.048      -12420.051          48.000  
G32  23293699.654   122409261.013      -11367.984          48.000  
G26  25792324.079   135539576.4892      -8984.569          45.000  
G10  21525306.678   113116205.337      -12765.673          49.000  
G12  24017665.354   126213640.519      -14528.542          48.000  
G18  26526612.750   139398268.641      -15516.201          43.000  
G23  22615550.276   118845520.255      -15090.243          49.000  
G22  24243194.888   127398787.362      -11275.518          48.000  
G21  27099644.806   142409563.505      -12101.652          44.000  
G31  22817477.466   119906599.685      -11207.356          48.000  
G24  26430739.065   138894455.319      -15783.774          43.000  
> 2022  2 14  0  4 20.0040000  0 11                     
G25  21992179.886   115569657.010      -12420.184          48.000  
G32  23295862.991   122420629.713      -11367.524          48.000  
G26  25794033.994   135548561.3111      -8984.142          45.000  
G10  21527736.075   113128971.635      -12765.271          49.000  
G12  24020430.247   126228170.014      -14528.706          48.000  
G18  26529565.583   139413785.434      -15515.422          43.000  
G23  22618422.061   118860611.496      -15090.155          49.000  
G22  24245340.827   127410063.537      -11274.961          48.000  
G21  27101947.743   142421665.910      -12101.408          44.000  
G31  22819610.231   119917808.029      -11207.354          48.000  
G24  26433742.766   138910239.541      -15782.853          43.000  
> 2022  2 14  0  4 21.0040000  0 11                     
G25  21994543.250   115582076.525      -12421.899          48.000  
G32  23298025.763   122431996.282      -11368.690          48.000  
G26  25795743.841   135557544.475       -8985.278          45.000  
G10  21530165.192   113141736.440      -12766.672          49.000  
G12  24023194.917   126242697.953      -14530.350          48.000  
G18  26532517.963   139429299.831      -15516.409          43.000  
G23  22621293.549   118875701.073      -15091.751          49.000  
G22  24247486.287   127421337.510      -11276.020          48.000  
G21  27104250.397   142433766.569      -12102.906          44.000  
G31  22821742.887   119929014.670      -11208.948          48.000  
G24  26436745.929   138926021.493      -15783.869          43.000  
> 2022  2 14  0  4 22.0040000  0 11                     
G25  21996907.500   115594498.904      -12420.154          48.000  
G32  23300189.024   122443365.032      -11366.156          48.000  
G26  25797453.631   135566529.803       -8982.857          45.000  
G10  21532594.829   113154504.109      -12765.239          49.000  
G12  24025960.057   126257228.648      -14528.411          48.000  
G18  26535470.598   139444816.124      -15513.665          43.000  
G23  22624165.539   118890793.323      -15089.875          49.000  
G22  24249632.162   127432613.591      -11273.516          48.000  
G21  27106553.586   142445869.773      -12100.837          44.000  
G31  22823875.857   119940223.912      -11206.984          48.000  
G24  26439749.585   138941805.488      -15781.475          43.000  
> 2022  2 14  0  4 23.0040000  0 11                     
G25  21999271.140   115606921.181      -12422.198          48.000  
G32  23302352.139   122454732.997      -11367.346          48.000  
G26  25799163.348   135575514.309       -8983.927          45.000  
G10  21535024.433   113167271.657      -12767.822          49.000  
G12  24028725.189   126271759.140      -14530.311          48.000  
G18  26538422.978   139460331.348      -15514.466          43.000  
G23  22627037.492   118905885.284      -15092.002          49.000  
G22  24251777.952   127443888.816      -11274.724          48.000  
G21  27108856.689   142457972.575      -12102.404          44.000  
G31  22826008.539   119951432.783      -11208.502          48.000  
G24  26442752.991   138957588.549      -15782.612          43.000  
> 2022  2 14  0  4 24.0040000  0 11                     
G25  22001634.968   115619342.108      -12421.673          48.000  
G32  23304514.812   122466098.944      -11366.232          48.000  
G26  25800872.715   135584496.779       -8982.648          45.000  
G10  21537453.770   113180037.791      -12767.188          49.000  
G12  24031490.021   126286288.174      -14529.584          48.000  
G18  26541374.992   139475844.290      -15513.027          43.000  
G23  22629909.137   118920975.680      -15091.196          49.000  
G22  24253923.301   127455161.943      -11273.427          48.000  
G21  27111159.417   142470073.717      -12101.581          44.000  
G31  22828140.959   119962640.062      -11207.696          48.000  
G24  26445755.965   138973369.425      -15781.101          43.000  
> 2022  2 14  0  4 25.0040000  0 10                     
G25  22003998.905   115631764.832      -12422.662          48.000  
G32  23306677.740   122477465.992      -11366.220          48.000  
G10  21539883.451   113192805.666      -12767.936          49.000  
G12  24034255.121   126300818.904      -14530.413          48.000  
G18  26544327.126   139491358.062      -15512.856          43.000  
G23  22632781.093   118936067.659      -15091.724          49.000  
G22  24256068.740   127466436.112      -11273.461          48.000  
G21  27113462.532   142482176.346      -12102.106          44.000  
G31  22830274.094   119973848.877      -11208.348          48.000  
G24  26448759.182   138989151.280      -15781.137          43.000  
> 2022  2 14  0  4 26.0050000  0 10                     
G25  22006365.058   115644199.326      -12422.480          48.000  
G32  23308842.547   122488843.100      -11365.672          48.000  
G10  21542315.429   113205585.637      -12767.808          49.000  
G12  24037022.900   126315363.417      -14530.229          48.000  
G18  26547281.910   139506885.756      -15511.957          43.000  
G23  22635655.751   118951173.889      -15091.433          49.000  
G22  24258216.127   127477720.159      -11272.688          48.000  
G21  27115767.739   142494290.133      -12101.818          44.000  
G31  22832409.078   119985067.996      -11207.996          48.000  
G24  26451765.084   139004947.459      -15780.321          43.000  
> 2022  2 14  0  4 27.0050000  0 11                     
G25  22008729.292   115656622.987      -12423.378          48.000  
G32  23311005.433   122500209.753      -11366.176          48.000  
G26  25806003.511   135611463.1603      -8982.614          45.000  
G10  21544745.296   113218354.369      -12768.722          49.000  
G12  24039788.183   126329894.891      -14531.276          48.000  
G18  26550233.939   139522398.577      -15512.217          43.000  
G23  22638527.800   118966266.405      -15092.110          49.000  
G22  24260361.585   127488993.776      -11273.108          48.000  
G21  27118070.896   142506393.100      -12102.608          44.000  
G31  22834542.210   119996277.253      -11208.945          48.000  
G24  26454768.147   139020728.621      -15780.727          43.000  
> 2022  2 14  0  4 28.0050000  0 11                     
G25  22011093.795   115669047.268      -12424.322          48.000  
G32  23313168.159   122511576.330      -11366.404          48.000  
G26  25807712.598   135620446.1822      -8982.960          45.000  
G10  21547175.252   113231123.660      -12768.959          49.000  
G12  24042553.448   126344426.865      -14532.036          48.000  
G18  26553185.841   139537911.043      -15512.156          43.000  
G23  22641399.929   118981359.335      -15092.729          49.000  
G22  24262506.979   127500267.247      -11273.232          48.000  
G21  27120374.086   142518496.381      -12103.289          44.000  
G31  22836675.706   120007486.857      -11209.652          48.000  
G24  26457771.154   139036509.562      -15780.879          43.000  
> 2022  2 14  0  4 29.0050000  0 11                     
G25  22013458.335   115681471.729      -12425.625          48.000  
G32  23315331.016   122522942.408      -11366.949          48.000  
G26  25809421.620   135629428.6722      -8983.414          45.000  
G10  21549605.235   113243893.153      -12770.402          49.000  
G12  24045318.789   126358958.914      -14533.169          48.000  
G18  26556137.641   139553422.732      -15512.394          43.000  
G23  22644272.059   118996452.275      -15094.196          49.000  
G22  24264652.271   127511540.144      -11273.714          48.000  
G21  27122677.238   142530599.526      -12104.278          44.000  
G31  22838809.068   120018696.380      -11210.614          48.000  
G24  26460774.135   139052289.857      -15781.260          43.000  
> 2022  2 14  0  4 30.0050000  0 11                     
G25  22015823.002   115693895.880      -12420.282          48.000  
G32  23317493.515   122534307.500      -11360.896          48.000  
G26  25811130.765   135638410.1582      -8977.276          45.000  
G10  21552035.122   113256662.255      -12764.854          49.000  
G12  24048084.138   126373490.555      -14527.712          48.000  
G18  26559089.178   139568933.162      -15506.011          43.000  
G23  22647144.074   119011544.658      -15088.258          49.000  
G22  24266797.350   127522811.985      -11267.615          48.000  
G21  27124980.280   142542702.052      -12098.474          44.000  
G31  22840942.183   120029905.336      -11204.922          48.000  
G24  26463776.819   139068069.012      -15774.909          43.000  
> 2022  2 14  0  4 31.0050000  0 11                     
G25  22018187.271   115706320.215      -12424.050          48.000  
G32  23319656.129   122545672.091      -11363.842          48.000  
G26  25812839.891   135647391.1202      -8980.077          45.000  
G10  21554465.070   113269431.553      -12769.455          49.000  
G12  24050849.464   126388022.269      -14531.269          48.000  
G18  26562040.654   139584442.816      -15508.794          43.000  
G23  22650016.098   119026637.049      -15092.018          49.000  
G22  24268942.313   127534083.252      -11270.492          48.000  
G21  27127283.351   142554804.459      -12101.936          44.000  
G31  22843075.156   120041114.216      -11208.277          48.000  
G24  26466779.435   139083847.525      -15777.672          43.000  
> 2022  2 14  0  4 32.0050000  0 11                     
G25  22020552.116   115718747.674      -12427.863          48.000  
G32  23321819.307   122557039.139      -11367.113          48.000  
G26  25814549.426   135656374.0211      -8983.419          45.000  
G10  21556895.604   113282203.882      -12773.233          49.000  
G12  24053615.425   126402557.014      -14535.060          48.000  
G18  26564992.460   139599954.649      -15511.760          43.000  
G23  22652888.683   119041732.361      -15095.947          49.000  
G22  24271087.738   127545356.904      -11273.714          48.000  
G21  27129586.900   142566909.679      -12105.360          44.000  
G31  22845208.582   120052325.979      -11212.027          48.000  
G24  26469782.417   139099628.370      -15781.247          43.000  
> 2022  2 14  0  4 33.0050000  0 10                     
G25  22022917.590   115731175.048      -12431.424          48.000  
G32  23323982.126   122568405.417      -11369.934          48.000  
G10  21559326.117   113294976.125      -12776.751          49.000  
G12  24056381.276   126417091.561      -14538.505          48.000  
G18  26567944.065   139615465.432      -15514.251          43.000  
G23  22655761.212   119056827.378      -15099.038          49.000  
G22  24273232.974   127556629.710      -11276.453          48.000  
G21  27131890.328   142579014.512      -12108.653          44.000  
G31  22847342.166   120063537.388      -11215.247          48.000  
G24  26472785.267   139115408.277      -15783.613          43.000  
> 2022  2 14  0  4 34.0050000  0 10                     
G25  22025282.694   115743604.808      -12425.211          48.000  
G32  23326145.448   122579773.405      -11363.094          48.000  
G10  21561757.070   113307750.669      -12769.879          49.000  
G12  24059147.574   126431628.396      -14532.192          48.000  
G18  26570896.035   139630977.657      -15507.242          43.000  
G23  22658634.130   119071924.573      -15092.382          49.000  
G22  24275378.561   127567904.153      -11269.507          48.000  
G21  27134194.237   142591121.431      -12102.269          44.000  
G31  22849475.597   120074750.935      -11208.845          48.000  
G24  26475788.404   139131189.737      -15776.409          43.000  
> 2022  2 14  0  4 35.0050000  0 11                     
G25  22027646.470   115756028.488      -12426.586          48.000  
G32  23328307.421   122591134.639      -11363.931          48.000  
G26  25819676.728   135683316.4403      -8980.157          45.000  
G10  21564186.877   113320519.110      -12771.137          49.000  
G12  24061912.754   126446159.048      -14533.574          48.000  
G18  26573846.619   139646482.843      -15507.699          43.000  
G23  22661505.860   119087015.496      -15093.799          49.000  
G22  24277522.817   127579171.765      -11270.235          48.000  
G21  27136496.960   142603221.955      -12103.320          44.000  
G31  22851608.163   120085958.147      -11210.085          48.000  
G24  26478790.197   139146964.302      -15776.829          43.000  
> 2022  2 14  0  4 36.0050000  0 11                     
G25  22030012.174   115768460.082      -12428.092          48.000  
G32  23330470.587   122602503.095      -11364.586          48.000  
G26  25821385.764   135692301.1602      -8980.767          45.000  
G10  21566618.170   113333295.459      -12772.961          49.000  
G12  24064679.391   126460697.497      -14534.802          48.000  
G18  26576798.478   139661994.986      -15508.255          43.000  
G23  22664379.065   119102114.133      -15095.215          49.000  
G22  24279668.463   127590446.532      -11270.873          48.000  
G21  27138801.002   142615330.085      -12104.436          44.000  
G31  22853742.290   120097172.999      -11211.166          48.000  
G24  26481793.360   139162745.950      -15777.689          44.000  
> 2022  2 14  0  4 37.0050000  0 11                     
G25  22032376.742   115780886.310      -12427.179          48.000  
G32  23332632.639   122613865.516      -11363.159          48.000  
G26  25823094.408   135701279.8312      -8979.444          45.000  
G10  21569048.435   113346066.342      -12771.438          49.000  
G12  24067444.956   126475230.494      -14534.021          48.000  
G18  26579749.074   139677500.797      -15506.236          43.000  
G23  22667251.219   119117207.178      -15093.812          49.000  
G22  24281812.912   127601715.189      -11269.300          48.000  
G21  27141103.988   142627432.561      -12103.513          44.000  
G31  22855875.336   120108382.249      -11210.270          48.000  
G24  26484795.370   139178521.414      -15775.842          43.000  
> 2022  2 14  0  4 38.0050000  0 11                     
G25  22034741.596   115793314.059      -12427.207          48.000  
G32  23334794.959   122625228.778      -11362.582          48.000  
G26  25824803.007   135710259.317       -8978.796          45.000  
G10  21571478.980   113358838.758      -12771.711          49.000  
G12  24070210.839   126489764.895      -14533.893          48.000  
G18  26582699.829   139693007.189      -15505.488          43.000  
G23  22670123.626   119132301.563      -15093.813          49.000  
G22  24283957.534   127612984.613      -11268.571          48.000  
G21  27143407.245   142639536.210      -12102.721          44.000  
G31  22858008.878   120119592.749      -11210.002          48.000  
G24  26487797.390   139194297.592      -15775.361          43.000  
> 2022  2 14  0  4 39.0050000  0 11                     
G25  22037106.235   115805738.760      -12422.249          48.000  
G32  23336956.406   122636588.302      -11356.713          48.000  
G26  25826511.146   135719235.038       -8972.953          45.000  
G10  21573908.933   113371608.085      -12766.769          49.000  
G12  24072976.063   126504296.137      -14528.759          48.000  
G18  26585649.846   139708509.566      -15499.578          43.000  
G23  22672995.392   119147392.686      -15088.418          49.000  
G22  24286101.407   127624250.235      -11262.837          48.000  
G21  27145709.831   142651636.541      -12097.796          44.000  
G31  22860141.742   120130799.938      -11204.647          48.000  
G24  26490798.804   139210069.874      -15769.349          44.000  
> 2022  2 14  0  4 40.0050000  0 11                     
G25  22039471.050   115818165.193      -12435.695          48.000  
G32  23339117.965   122647948.893      -11369.618          48.000  
G26  25828219.449   135728211.805       -8985.740          45.000  
G10  21576339.254   113384379.081      -12779.841          49.000  
G12  24075741.728   126518829.016      -14542.150          48.000  
G18  26588600.092   139724012.724      -15512.100          43.000  
G23  22675867.509   119162485.346      -15101.725          49.000  
G22  24288245.518   127635516.837      -11275.593          48.000  
G21  27148012.809   142663738.278      -12110.823          44.000  
G31  22862274.840   120142008.614      -11217.892          48.000  
G24  26493800.446   139225843.076      -15782.657          44.000  
> 2022  2 14  0  4 41.0050000  0 10                     
G25  22041837.758   115830602.653      -12433.510          48.000  
G32  23341281.646   122659319.825      -11366.714          48.000  
G10  21578771.600   113397161.077      -12777.835          49.000  
G12  24078509.393   126533372.818      -14539.903          48.000  
G18  26591552.114   139739525.954      -15508.982          43.000  
G23  22678741.647   119177588.832      -15099.656          49.000  
G22  24290391.530   127646793.715      -11272.656          48.000  
G21  27150317.693   142675850.748      -12108.449          44.000  
G31  22864409.869   120153228.058      -11215.539          48.000  
G24  26496803.925   139241626.462      -15778.886          44.000  
> 2022  2 14  0  4 42.0050000  0 10                     
G25  22044202.918   115843033.700      -12429.415          48.000  
G32  23343443.929   122670683.663      -11361.851          48.000  
G10  21581202.741   113409936.647      -12774.198          49.000  
G12  24081275.748   126547910.089      -14535.547          48.000  
G18  26594502.800   139755031.803      -15503.729          43.000  
G23  22681614.498   119192685.690      -15095.309          49.000  
G22  24292536.207   127658063.421      -11267.649          48.000  
G21  27152621.345   142687956.491      -12103.868          44.000  
G31  22866543.633   120164440.820      -11210.936          48.000  
G24  26499806.025   139257402.595      -15773.886          44.000  
> 2022  2 14  0  4 43.0050000  0 10                     
G25  22046569.645   115855465.082      -12431.133          49.000  
G32  23345606.327   122682047.160      -11362.981          48.000  
G10  21583633.956   113422712.475      -12775.770          49.000  
G12  24084042.185   126562447.599      -14537.221          48.000  
G18  26597453.291   139770537.033      -15504.465          43.000  
G23  22684487.383   119207782.683      -15096.826          49.000  
G22  24294680.880   127669332.712      -11268.640          48.000  
G21  27154924.995   142700062.254      -12105.307          44.000  
G31  22868677.569   120175653.671      -11212.497          48.000  
G24  26502808.098   139273178.273      -15775.048          44.000  
> 2022  2 14  0  4 44.0050000  0 10                     
G25  22048935.715   115867896.263      -12434.142          48.000  
G32  23347768.398   122693409.782      -11365.363          48.000  
G10  21586065.137   113435488.077      -12778.749          49.000  
G12  24086808.524   126576984.807      -14540.196          48.000  
G18  26600403.639   139786041.125      -15506.849          44.000  
G23  22687360.222   119222879.279      -15099.781          49.000  
G22  24296825.340   127680601.060      -11271.036          48.000  
G21  27157228.514   142712167.519      -12108.115          44.000  
G31  22870811.622   120186866.068      -11215.382          48.000  
G24  26505809.914   139288952.921      -15777.687          43.000  
> 2022  2 14  0  4 45.0050000  0 10                     
G25  22051301.086   115880328.932      -12430.417          48.000  
G32  23349931.022   122704773.204      -11360.856          48.000  
G10  21588496.541   113448265.104      -12774.483          49.000  
G12  24089575.178   126591523.395      -14536.347          48.000  
G18  26603354.091   139801545.724      -15501.931          43.000  
G23  22690233.277   119237977.136      -15095.483          49.000  
G22  24298969.805   127691870.134      -11266.443          48.000  
G21  27159532.277   142724273.966      -12104.109          44.000  
G31  22872945.122   120198079.687      -11211.317          48.000  
G24  26508811.862   139304728.215      -15772.644          44.000  
> 2022  2 14  0  4 46.0050000  0 10                     
G25  22053666.350   115892761.272      -12432.699          48.000  
G32  23352093.334   122716135.621      -11362.340          48.000  
G10  21590927.909   113461041.812      -12777.213          49.000  
G12  24092341.715   126606061.538      -14538.417          48.000  
G18  26606304.341   139817049.050      -15503.214          43.000  
G23  22693106.268   119253074.477      -15097.440          49.000  
G22  24301114.193   127703138.128      -11267.911          48.000  
G21  27161835.843   142736379.756      -12105.685          44.000  
G31  22875079.012   120209292.711      -11213.123          48.000  
G24  26511813.625   139320502.354      -15774.045          43.000  
> 2022  2 14  0  4 47.0050000  0 10                     
G25  22056032.208   115905195.359      -12434.641          48.000  
G32  23354255.789   122727499.107      -11363.764          48.000  
G10  21593359.605   113473820.192      -12778.807          49.000  
G12  24095108.677   126620601.332      -14540.363          48.000  
G18  26609254.733   139832553.158      -15504.176          43.000  
G23  22695979.545   119268173.375      -15099.511          49.000  
G22  24303258.689   127714407.119      -11269.303          48.000  
G21  27164139.789   142748487.007      -12107.479          44.000  
G31  22877212.854   120220507.239      -11214.983          48.000  
G24  26514815.618   139336277.447      -15775.505          44.000  
> 2022  2 14  0  4 48.0050000  0 10                     
G25  22058398.251   115917628.548      -12431.556          48.000  
G32  23356417.919   122738861.016      -11359.890          48.000  
G10  21595791.119   113486597.648      -12776.010          49.000  
G12  24097875.350   126635140.119      -14537.070          48.000  
G18  26612204.751   139848055.414      -15500.015          43.000  
G23  22698852.576   119283271.153      -15096.394          49.000  
G22  24305402.927   127725674.458      -11265.336          48.000  
G21  27166443.544   142760593.061      -12104.318          44.000  
G31  22879346.493   120231720.609      -11211.591          48.000  
G24  26517817.214   139352050.761      -15771.266          43.000  
> 2022  2 14  0  4 49.0050000  0 10                     
G25  22060762.619   115930060.254      -12431.762          48.000  
G32  23358579.480   122750220.773      -11359.484          48.000  
G10  21598222.322   113499373.561      -12775.710          49.000  
G12  24100641.742   126649677.327      -14537.259          48.000  
G18  26615154.321   139863555.246      -15499.488          43.000  
G23  22701725.316   119298367.243      -15096.176          49.000  
G22  24307546.672   127736939.570      -11264.840          48.000  
G21  27168746.983   142772697.315      -12104.166          44.000  
G31  22881480.005   120242932.238      -11211.566          48.000  
G24  26520818.407   139367821.795      -15770.558          43.000  
> 2022  2 14  0  4 50.0050000  0 11                     
G25  22063127.937   115942493.770      -12432.727          48.000  
G32  23360741.179   122761581.644      -11359.671          48.000  
G26  25845305.043                3      -8975.353          45.000  
G10  21600653.880   113512151.270      -12777.098          49.000  
G12  24103408.452   126664216.225      -14538.049          48.000  
G18  26618104.086   139879055.915      -15499.386          43.000  
G23  22704598.364   119313464.943      -15097.194          49.000  
G22  24309690.668   127748205.726      -11264.952          48.000  
G21  27171050.714   142784803.057      -12104.616          44.000  
G31  22883613.897   120254145.415      -11212.207          48.000  
G24  26523819.735   139383593.803      -15770.774          44.000  
> 2022  2 14  0  4 51.0050000  0 11                     
G25  22065494.237   115954929.111      -12435.806          49.000  
G32  23362903.121   122772943.673      -11362.104          48.000  
G26  25847015.082   135826972.1622      -8978.072          45.000  
G10  21603085.776   113524930.760      -12780.100          49.000  
G12  24106175.546   126678756.846      -14540.969          48.000  
G18  26621053.878   139894557.452      -15501.435          43.000  
G23  22707471.707   119328564.259      -15099.854          49.000  
G22  24311834.984   127759472.962      -11267.315          48.000  
G21  27173354.648   142796910.329      -12107.528          44.000  
G31  22885748.178   120265360.163      -11215.069          48.000  
G24  26526821.345   139399366.818      -15772.957          44.000  
> 2022  2 14  0  4 52.0050000  0 11                     
G25  22067860.619   115967364.093      -12436.178          48.000  
G32  23365064.948   122784304.660      -11361.847          48.000  
G26  25848723.457   135835949.0782      -8977.783          45.000  
G10  21605517.601   113537709.828      -12779.750          49.000  
G12  24108942.508   126693297.007      -14541.339          48.000  
G18  26624003.550   139910057.678      -15500.932          43.000  
G23  22710344.954   119343663.014      -15099.869          49.000  
G22  24313979.056   127770739.085      -11266.969          48.000  
G21  27175658.522   142809016.934      -12107.634          44.000  
G31  22887882.210   120276574.299      -11215.242          48.000  
G24  26529822.644   139415138.670      -15772.860          43.000  
> 2022  2 14  0  4 53.0050000  0 11                     
G25  22070227.603   115979800.622      -12437.411          49.000  
G32  23367226.952   122795666.517      -11362.521          48.000  
G26  25850432.110   135844926.8492      -8978.518          45.000  
G10  21607949.704   113550490.410      -12781.080          49.000  
G12  24111709.785   126707838.608      -14542.463          48.000  
G18  26626953.285   139925558.495      -15501.304          43.000  
G23  22713218.435   119358763.096      -15100.804          49.000  
G22  24316123.243   127782006.007      -11267.495          48.000  
G21  27177962.557   142821124.787      -12108.713          44.000  
G31  22890016.590   120287789.724      -11216.360          48.000  
G24  26532824.051   139430911.214      -15773.101          43.000  
> 2022  2 14  0  4 54.0050000  0 11                     
G25  22072594.660   115992236.611      -12438.342          49.000  
G32  23369388.764   122807027.148      -11362.556          48.000  
G26  25852139.975   135853903.3602      -8978.441          45.000  
G10  21610381.705   113563270.457      -12782.653          49.000  
G12  24114476.832   126722379.558      -14543.238          48.000  
G18  26629902.726   139941057.803      -15501.014          43.000  
G23  22716091.785   119373862.457      -15101.681          49.000  
G22  24318267.185   127793271.631      -11267.635          48.000  
G21  27180266.460   142833231.779      -12109.249          44.000  
G31  22892150.812   120299004.336      -11216.780          48.000  
G24  26535825.220   139446682.399      -15773.225          43.000  
> 2022  2 14  0  4 55.0050000  0 11                     
G25  22074961.423   116004673.887      -12437.427          48.000  
G32  23371550.678   122818388.401      -11361.228          48.000  
G26  25853848.400   135862880.4822      -8977.114          45.000  
G10  21612813.942   113576051.685      -12780.778          49.000  
G12  24117244.102   126736921.697      -14542.370          48.000  
G18  26632852.242   139956557.457      -15499.415          43.000  
G23  22718965.340   119388962.889      -15100.302          49.000  
G22  24320411.202   127804537.795      -11266.122          48.000  
G21  27182570.528   142845339.762      -12108.107          44.000  
G31  22894285.582   120310220.000      -11215.885          48.000  
G24  26538826.455   139462454.040      -15771.474          43.000  
> 2022  2 14  0  4 56.0050000  0 11                     
G25  22077328.272   116017110.486      -12435.841          48.000  
G32  23373712.345   122829748.284      -11358.766          48.000  
G26  25855556.473   135871856.210       -8974.580          45.000  
G10  21615246.042   113588832.256      -12779.854          49.000  
G12  24120011.305   126751463.042      -14540.515          48.000  
G18  26635801.441   139972055.469      -15496.794          43.000  
G23  22721838.710   119404062.438      -15098.605          49.000  
G22  24322554.958   127815802.519      -11263.521          48.000  
G21  27184874.394   142857446.749      -12106.148          44.000  
G31  22896419.660   120321434.706      -11213.736          48.000  
G24  26541827.405   139478224.193      -15769.151          43.000  
> 2022  2 14  0  4 57.0050000  0 10                     
G25  22079695.445   116029547.615      -12435.723          48.000  
G32  23375873.640   122841108.022      -11357.962          48.000  
G10  21617678.240   113601613.286      -12779.546          49.000  
G12  24122778.576   126766004.811      -14540.264          48.000  
G18  26638750.534   139987553.043      -15495.666          43.000  
G23  22724712.132   119419162.311      -15098.220          49.000  
G22  24324698.764   127827067.027      -11262.695          48.000  
G21  27187178.327   142869553.950      -12105.609          44.000  
G31  22898553.759   120332649.697      -11213.495          48.000  
G24  26544828.277   139493994.036      -15768.190          43.000  
> 2022  2 14  0  4 58.0050000  0 10                     
G25  22082062.417   116041984.186      -12435.354          48.000  
G32  23378034.980   122852466.527      -11356.909          48.000  
G10  21620110.299   113614393.709      -12778.732          49.000  
G12  24125545.731   126780545.924      -14539.814          48.000  
G18  26641699.412   140003049.118      -15494.333          43.000  
G23  22727585.421   119434261.423      -15097.571          49.000  
G22  24326842.193   127838330.225      -11261.500          48.000  
G21  27189482.080   142881660.302      -12104.891          44.000  
G31  22900687.786   120343863.868      -11212.726          48.000  
G24  26547828.910   139509762.490      -15766.938          43.000  
> 2022  2 14  0  4 59.0050000  0 11                     
G25  22084428.796   116054421.133      -12438.429          48.000  
G32  23380196.319   122863824.729      -11359.385          48.000  
G26  25860680.163                3      -8974.170          45.000  
G10  21622542.448   113627174.498      -12781.931          49.000  
G12  24128312.972   126795087.304      -14542.804          48.000  
G18  26644648.091   140018544.608      -15496.598          43.000  
G23  22730458.768   119449360.721      -15100.761          49.000  
G22  24328985.563   127849593.048      -11263.970          48.000  
G21  27191785.935   142893766.716      -12107.572          44.000  
G31  22902821.910   120355078.165      -11215.711          48.000  
G24  26550829.468   139525530.500      -15769.214          44.000  
> 2022  2 14  0  5  0.0050000  0 11                     
G25  22086795.702                3     -12444.247          37.000  
G32  23382358.627                3     -11358.459          40.000  
G26  25862388.598                3      -8972.830          37.000  
G10  21624975.224                3     -12778.292          38.000  
G12  24131080.689                3     -14548.802          34.000  
G18  26647597.103   140034041.940      -15496.911          31.000  
G23  22733332.310                3     -15106.815          40.000  
G22  24331129.436   127860858.272      -11268.519          38.000  
G21  27194090.156   142905875.250      -12104.146          34.000  
G31  22904956.611   120366295.675      -11224.739          37.000  
G24  26553830.400   139541300.376      -15767.353          30.000  
> 2022  2 14  0  5  1.0050000  0  5                     
G32  23384557.439                3     -11383.100          25.000  
G12  24133848.982                3     -14585.898          21.000  
G18  26650546.340                3     -15496.443          19.000  
G23  22736207.578                3     -15096.355          17.000  
G21  27196396.343                3     -12107.055          15.000  
> 2022  2 14  0  5  2.0050000  0  3                     
G32  23386742.209                2     -11358.661          26.000  
G12  24136622.993                3     -14585.898          16.000  
G23  22739081.516                3     -15088.546          19.000  
> 2022  2 14  0  5  3.0050000  0  1                     
G32  23388919.237                2     -11353.529          27.000  
> 2022  2 14  0  5  4.0050000  0  2                     
G25  22117277.328   116227076.5522     -12232.717          49.000  
G18  26498146.113   139248696.7642     -15568.790          44.000  
> 2022  2 14  0  5  5.0050000  0  5                     
G25  22119605.454   116239308.9722     -12232.841          50.000  
G10  21638285.612   113709957.9652     -12587.881          49.000  
G12  24045103.513   126357871.0342     -14364.642          48.000  
G18  26501109.324   139264264.8942     -15567.979          44.000  
G22  24423766.316   128347757.7803     -11278.048          48.000  
> 2022  2 14  0  5  6.0050000  0  6                     
G25  22121933.243   116251543.2592     -12234.413          49.000  
G32  23472415.290   123348374.1082     -11353.946          48.000  
G10  21640681.863   113722547.4372     -12589.583          49.000  
G12  24047855.470   126372237.2272     -14366.066          48.000  
G18  26504071.393   139279833.9842     -15568.646          44.000  
G22  24425913.864   128359037.0952     -11278.965          48.000  
> 2022  2 14  0  5  7.0050000  0  6                     
G25  22124261.517   116263778.6822     -12236.553          49.000  
G32  23474582.766   123359728.8012     -11355.104          48.000  
G10  21643078.145   113735138.0152     -12591.939          49.000  
G12  24050582.115   126386604.4712     -14367.939          48.000  
G18  26507034.186   139295403.2672     -15569.564          44.000  
G22  24428055.130   128370316.7822     -11279.990          48.000  
> 2022  2 14  0  5  8.0050000  0  8                     
G25  22126590.075   116276015.0912     -12237.253          49.000  
G32  23476747.223   123371083.7782     -11354.728          48.000  
G31  23010729.588   120922200.0313     -11087.099          48.000  
G10  21645474.082   113747729.5392     -12592.626          49.000  
G12  24053310.060   126400972.5882     -14368.312          48.000  
G18  26509997.099   139310972.5762     -15568.896          44.000  
G22  24430204.096   128381596.6982     -11279.779          48.000  
G21  27249914.482   143199266.4722     -11993.817          44.000  
> 2022  2 14  0  5  9.0050000  0 10                     
G25  22128918.772   116288252.2652     -12237.006          49.000  
G32  23478908.679   123382438.9082     -11354.497          48.000  
G31  23012841.742   120933287.7772     -11087.356          48.000  
G10  21647870.299   113760321.7632     -12591.979          49.000  
G12  24056043.220   126415341.4482     -14368.472          48.000  
G18  26512959.829   139326541.8012     -15568.469          44.000  
G22  24432352.184   128392876.6812     -11279.238          48.000  
G26  26090701.974   137107563.8292      -8978.689          44.000  
G24  26405123.796   138759861.1563     -15804.397          44.000  
G21  27252193.665   143211260.6482     -11993.658          44.000  
> 2022  2 14  0  5 10.0050000  0 10                     
G25  22131247.739   116300490.8992     -12240.077          49.000  
G32  23481067.945   123393794.7892     -11356.753          48.000  
G31  23014947.234   120944376.6942     -11090.031          48.000  
G10  21650266.831   113772915.4332     -12595.090          49.000  
G12  24058777.939   126429711.6622     -14371.516          48.000  
G18  26515922.646   139342111.5052     -15570.351          44.000  
G22  24434498.819   128404157.3612     -11281.500          48.000  
G26  26092412.133   137116544.0932      -8981.185          44.000  
G24  26408132.667   138775666.9932     -15806.598          44.000  
G21  27254479.064   143223255.9582     -11996.291          44.000  
> 2022  2 14  0  5 11.0050000  0 10                     
G25  22133577.392   116312733.1222     -12244.243          49.000  
G32  23483229.168   123405153.5832     -11360.622          48.000  
G31  23017063.303   120955468.9652     -11094.429          48.000  
G10  21652664.054   113785512.6552     -12599.440          49.000  
G12  24061513.358   126444085.3852     -14375.844          48.000  
G18  26518886.027   139357683.8952     -15574.143          44.000  
G22  24436646.009   128415440.8882     -11285.388          48.000  
G26  26094120.384   137125527.2282      -8985.052          44.000  
G24  26411141.316   138791475.6222     -15810.580          44.000  
G21  27256760.099   143235254.5862     -12000.787          44.000  
> 2022  2 14  0  5 12.0050000  0 11                     
G25  22135907.029   116324975.2582     -12237.930          49.000  
G32  23485390.454   123416511.5962     -11353.507          48.000  
G31  23019171.408   120966560.8772     -11087.616          48.000  
G10  21655061.218   113798109.7482     -12593.023          49.000  
G12  24064248.611   126458458.9192     -14369.250          48.000  
G18  26521849.192   139373255.2382     -15566.660          44.000  
G22  24438792.914   128426723.5662     -11278.065          48.000  
G23  22635128.847   118948404.2402     -14955.197          49.000  
G26  26095830.418   137134509.5262      -8977.780          44.000  
G24  26414149.766   138807283.3222     -15803.154          44.000  
G21  27259043.112   143247252.7912     -11993.717          44.000  
> 2022  2 14  0  5 13.0050000  0 11                     
G25  22138236.530   116337216.5592     -12242.332          49.000  
G32  23487551.537   123427868.1032     -11357.404          48.000  
G31  23021282.419   120977651.7132     -11091.991          48.000  
G10  21657458.249   113810705.9582     -12597.095          49.000  
G12  24066983.834   126472831.5552     -14374.081          48.000  
G18  26524811.968   139388824.8332     -15570.602          44.000  
G22  24440939.653   128438004.6712     -11282.002          48.000  
G23  22637913.047   118963362.7092     -14959.541          48.000  
G26  26097539.575   137143490.2982      -8981.892          44.000  
G24  26417157.712   138823089.3932     -15806.959          44.000  
G21  27261326.051   143259249.8882     -11998.331          44.000  
> 2022  2 14  0  5 14.0050000  0 11                     
G25                              1     -12244.022          49.000  
G32                              1     -11358.224          48.000  
G31  23023393.182   120988742.4662     -11093.225          48.000  
G10  21659855.300   113823302.2922     -12598.783          49.000  
G12                              1     -14375.214          48.000  
G18                              1     -15570.879          44.000  
G22                              1     -11282.670          48.000  
G23  22640754.286   118978321.1752     -14960.942          48.000  
G26  26099248.513   137152470.5072      -8982.360          44.000  
G24  26420165.464   138838894.8192     -15807.638          44.000  
G21  27263608.954   143271246.8372     -11999.358          44.000  
> 2022  2 14  0  5 14.9050000  0  7                     
G25                                    -12243.327          49.000  
G32                                    -11356.688          48.000  
G12                                    -14374.250          48.000  
G18                                    -15569.048          44.000  
G22                                    -11281.166          48.000  
G24  26422872.508   138853120.3152     -15805.993          44.000  
G21  27265663.832   143282045.1452     -11998.180          44.000  
> 2022  2 14  0  5 15.9050000  0  7                     
G25                                    -12249.459          49.000  
G32                                    -11362.295          48.000  
G12                                    -14380.416          48.000  
G18                                    -15574.562          44.000  
G22                                    -11286.708          48.000  
G24  26425880.778   138868928.5002     -15811.410          44.000  
G21  27267947.568   143294045.8392     -12004.097          44.000  
> 2022  2 14  0  5 16.9050000  0 10                     
G25                                    -12241.021          49.000  
G32                                    -11353.378          48.000  
G31                              3     -11089.762          48.000  
G26                              3      -8977.806          44.000  
G12                                    -14372.124          48.000  
G18                                    -15565.367          44.000  
G22                                    -11277.618          48.000  
G10                              3     -12595.645          49.000  
G24  26428889.151   138884737.7132     -15802.493          44.000  
G21  27270231.445   143306048.0592     -11995.614          44.000  
> 2022  2 14  0  5 17.9050000  0 10                     
G25                                    -12245.008          49.000  
G32                                    -11356.444          48.000  
G31                              2     -11093.141          48.000  
G26                              2      -8980.615          44.000  
G12                                    -14375.829          48.000  
G18                                    -15568.285          44.000  
G22                                    -11280.735          48.000  
G10                              2     -12599.719          49.000  
G24  26431896.432   138900540.8072     -15805.369          44.000  
G21  27272514.321   143318044.6772     -11999.108          44.000  
> 2022  2 14  0  5 18.9050000  0 10                     
G25                                    -12244.562          49.000  
G32                                    -11355.740          48.000  
G31                              2     -11092.848          48.000  
G26                              2      -8979.687          44.000  
G12                                    -14375.614          48.000  
G18                                    -15567.077          44.000  
G22                                    -11279.852          48.000  
G10                              2     -12599.100          49.000  
G24  26434904.175   138916346.8892     -15804.443          44.000  
G21  27274797.940   143330044.8072     -11998.832          44.000  
> 2022  2 14  0  5 19.9050000  0 10                     
G25                                    -12240.965          49.000  
G32                                    -11350.756          48.000  
G31                                    -11088.335          48.000  
G26                                     -8974.650          44.000  
G12                                    -14371.433          48.000  
G18                                    -15561.883          44.000  
G22                                    -11274.969          48.000  
G10                              1     -12595.677          49.000  
G24                              1     -15799.409          44.000  
G21                              1     -11994.308          44.000  
> 2022  2 14  0  5 20.9050000  0 11                     
G25                                    -12243.878          49.000  
G32                                    -11353.606          48.000  
G31                                    -11091.543          48.000  
G26                                     -8977.559          44.000  
G12                                    -14374.721          48.000  
G18                                    -15564.658          44.000  
G22                                    -11277.730          48.000  
G10                                    -12598.574          49.000  
G23                              3     -14959.591          49.000  
G24                                    -15802.113          44.000  
G21                                    -11997.350          44.000  
> 2022  2 14  0  5 21.9050000  0 11                     
G25                                    -12253.426          49.000  
G32                                    -11362.001          48.000  
G31                                    -11100.354          48.000  
G26                                     -8985.921          44.000  
G12                                    -14383.676          48.000  
G18                                    -15572.697          44.000  
G22                                    -11286.016          48.000  
G10                                    -12608.050          49.000  
G23                              2     -14968.693          48.000  
G24                                    -15810.262          44.000  
G21                                    -12006.137          44.000  
> 2022  2 14  0  5 22.9050000  0 11                     
G25                                    -12247.678          49.000  
G32                                    -11355.917          48.000  
G31                                    -11094.745          48.000  
G26                                     -8979.591          44.000  
G12                                    -14378.222          48.000  
G18                                    -15566.275          44.000  
G22                                    -11279.806          48.000  
G10                                    -12602.332          49.000  
G23                              2     -14963.109          48.000  
G24                                    -15804.116          44.000  
G21                                    -12000.379          44.000  
> 2022  2 14  0  5 23.9050000  0 11                     
G25                                    -12248.587          49.000  
G32                                    -11356.038          48.000  
G31                                    -11095.331          48.000  
G26                                     -8979.803          44.000  
G12                                    -14378.944          48.000  
G18                                    -15566.267          44.000  
G22                                    -11279.925          48.000  
G10                                    -12603.021          49.000  
G23                              2     -14963.762          48.000  
G24                                    -15804.062          44.000  
G21                                    -12000.901          44.000  
> 2022  2 14  0  5 24.9050000  0 11                     
G25                                    -12250.542          49.000  
G32                                    -11357.585          48.000  
G31                                    -11097.271          48.000  
G26                                     -8981.357          44.000  
G12                                    -14381.073          48.000  
G18                                    -15567.375          44.000  
G22                                    -11281.312          48.000  
G10                                    -12604.877          49.000  
G23                              2     -14965.712          48.000  
G24                                    -15805.489          44.000  
G21                                    -12003.017          44.000  
> 2022  2 14  0  5 25.9050000  0 11                     
G25                                    -12251.624          49.000  
G32                                    -11358.168          48.000  
G31                                    -11098.186          48.000  
G26                                     -8982.098          44.000  
G12                                    -14382.174          48.000  
G18                                    -15567.735          44.000  
G22                                    -11281.746          48.000  
G10                                    -12605.976          49.000  
G23                              1     -14966.758          48.000  
G24                                    -15805.969          44.000  
G21                                    -12003.750          44.000  
> 2022  2 14  0  5 26.9050000  0 11                     
G25                                    -12252.252          49.000  
G32                                    -11357.807          48.000  
G31                                    -11098.319          48.000  
G26                                     -8981.439          44.000  
G12                                    -14382.431          48.000  
G18                                    -15567.277          44.000  
G22                                    -11281.414          48.000  
G10                                    -12606.553          49.000  
G23                                    -14966.918          48.000  
G24                                    -15805.454          44.000  
G21                                    -12003.790          44.000  
> 2022  2 14  0  5 27.9050000  0 11                     
G25                                    -12255.317          49.000  
G32                                    -11360.189          48.000  
G31                                    -11101.112          48.000  
G26                                     -8983.750          44.000  
G12                                    -14385.426          48.000  
G18                                    -15569.361          44.000  
G22                                    -11283.737          48.000  
G10                                    -12609.532          49.000  
G23                                    -14969.809          48.000  
G24                                    -15807.684          44.000  
G21                                    -12006.659          44.000  
> 2022  2 14  0  5 28.9050000  0 11                     
G25                                    -12252.451          49.000  
G32                                    -11356.267          48.000  
G31                                    -11097.648          48.000  
G26                                     -8979.779          44.000  
G12                                    -14382.133          48.000  
G18                                    -15565.134          44.000  
G22                                    -11279.857          48.000  
G10                                    -12606.720          49.000  
G23                                    -14966.383          48.000  
G24                                    -15803.708          44.000  
G21                                    -12003.230          44.000  
> 2022  2 14  0  5 29.9050000  0 11                     
G25                                    -12250.786          49.000  
G32                                    -11354.031          48.000  
G31                                    -11095.904          48.000  
G26                                     -8977.729          44.000  
G12                                    -14380.625          48.000  
G18                                    -15562.726          44.000  
G22                                    -11277.653          48.000  
G10                                    -12605.276          49.000  
G23                                    -14964.623          48.000  
G24                                    -15801.315          44.000  
G21                                    -12001.346          44.000  
> 2022  2 14  0  5 30.9050000  0 11                     
G25                                    -12254.336          49.000  
G32                                    -11357.229          48.000  
G31                                    -11099.445          48.000  
G26                                     -8980.540          44.000  
G12                                    -14384.251          48.000  
G18                                    -15565.701          44.000  
G22                                    -11280.503          48.000  
G10                                    -12608.449          49.000  
G23                                    -14968.373          48.000  
G24                                    -15804.298          44.000  
G21                                    -12004.766          44.000  
> 2022  2 14  0  0 32.0030000  0 11                     
G25  21582703.653   113417869.788      -12254.948          49.000  
G32  22928808.833   120491713.961      -11357.875          48.000  
G31  22461449.572   118035717.836      -11100.527          48.000  
G26  25530254.969   134162384.790       -8981.396          44.000  
G12  23519116.434   123593773.030      -14385.450          48.000  
G18  25981216.310   136532209.103      -15565.975          44.000  
G22  23881925.486   125500368.512      -11281.104          48.000  
G10  21103204.542   110898085.413      -12609.003          49.000  
G23  22092146.092   116095086.094      -14969.507          48.000  
G24  25874417.018   135970975.437      -15804.917          44.000  
G21  26704904.513   140335216.934      -12005.648          44.000  
> 2022  2 14  0  0 33.0030000  0 11                     
G25  21585035.541   113430123.809      -12253.074          49.000  
G32  22930969.845   120503069.684      -11354.542          48.000  
G31  22463561.589   118046816.449      -11097.698          48.000  
G26  25531963.665   134171364.006       -8978.074          44.000  
G12  23521853.696   123608156.724      -14382.878          48.000  
G18  25984178.055   136547772.893      -15562.565          44.000  
G22  23884071.796   125511647.521      -11277.783          48.000  
G10  21105603.818   110910693.594      -12607.179          49.000  
G23  22094994.564   116110053.702      -14966.736          48.000  
G24  25877424.137   135986778.121      -15801.466          44.000  
G21  26707188.805   140347220.837      -12003.083          44.000  
> 2022  2 14  0  0 34.0030000  0 11                     
G25  21587366.893   113442374.971      -12252.527          49.000  
G32  22933130.057   120514421.897      -11353.126          48.000  
G31  22465672.785   118057911.981      -11096.627          48.000  
G26  25533671.659   134180339.666       -8976.646          44.000  
G12  23524590.420   123622537.491      -14381.941          48.000  
G18  25987139.043   136563332.911      -15560.665          44.000  
G22  23886217.338   125522922.949      -11276.369          48.000  
G10  21108002.542   110923298.875      -12606.659          49.000  
G23  22097841.769   116125018.296      -14965.682          48.000  
G24  25880430.612   136002577.160      -15799.871          44.000  
G21  26709472.505   140359221.592      -12001.959          44.000  
> 2022  2 14  0  0 35.0030000  0 11                     
G25  21589699.236   113454631.296      -12255.572          49.000  
G32  22935291.566   120525778.611      -11355.909          48.000  
G31  22467785.296   118069012.446      -11099.890          48.000  
G26  25535380.530   134189319.786       -8979.320          44.000  
G12  23527328.172   123636923.351      -14385.227          48.000  
G18  25990100.846   136578897.194      -15563.366          44.000  
G22  23888363.808   125534202.811      -11279.017          48.000  
G10  21110402.265   110935909.272      -12609.396          49.000  
G23  22100690.459   116139987.893      -14969.016          48.000  
G24  25883437.990   136018380.571      -15802.547          44.000  
G21  26711757.151   140371227.230      -12004.967          44.000  
> 2022  2 14  0  0 36.0030000  0 11                     
G25  21592031.566   113466887.575      -12258.623          49.000  
G32  22937452.303   120537134.565      -11357.651          48.000  
G31  22469897.796   118080112.580      -11102.028          48.000  
G26  25537089.307   134198299.112       -8980.953          44.000  
G12  23530065.928   123651309.052      -14387.616          48.000  
G18  25993062.496   136594460.446      -15564.646          44.000  
G22  23890510.100   125545481.838      -11280.732          48.000  
G10  21112801.967   110948519.596      -12612.826          49.000  
G23  22103538.958   116154957.221      -14971.270          48.000  
G24  25886445.215   136034183.086      -15804.083          44.000  
G21  26714041.705   140383232.485      -12006.900          44.000  
> 2022  2 14  0  0 37.0030000  0 11                     
G25  21594364.596   113479147.418      -12259.313          49.000  
G32  22939613.702   120548493.459      -11358.725          48.000  
G31  22472010.545   118091216.083      -11103.498          48.000  
G26  25538798.548   134207281.341       -8981.954          44.000  
G12  23532804.290   123665698.282      -14389.229          48.000  
G18  25996024.573   136610026.399      -15565.556          44.000  
G22  23892656.957   125556763.742      -11281.585          48.000  
G10  21115202.338   110961133.441      -12613.400          49.000  
G23  22106387.824   116169929.995      -14972.827          49.000  
G24  25889452.827   136049988.414      -15805.073          44.000  
G21  26716326.968   140395241.079      -12008.557          44.000  
> 2022  2 14  0  0 38.0030000  0 11                     
G25  21596697.160   113491404.911      -12257.189          49.000  
G32  22941774.497   120559849.271      -11355.141          48.000  
G31  22474123.003   118102316.937      -11100.491          48.000  
G26  25540507.177   134216260.461       -8978.740          44.000  
G12  23535542.147   123680085.039      -14386.506          48.000  
G18  25998986.067   136625589.008      -15561.770          44.000  
G22  23894803.201   125568042.514      -11278.147          48.000  
G10  21117602.240   110973744.899      -12611.128          49.000  
G23  22109235.713   116184900.181      -14969.755          48.000  
G24  25892459.852   136065790.527      -15801.434          44.000  
G21  26718611.665   140407246.958      -12005.463          44.000  
> 2022  2 14  0  0 39.0030000  0 11                     
G25  21599029.685   113503662.198      -12259.276          49.000  
G32  22943935.278   120571204.240      -11356.747          48.000  
G31  22476235.360   118113417.368      -11102.385          48.000  
G26  25542215.732   134225238.674       -8979.773          44.000  
G12  23538280.038   123694471.519      -14388.386          48.000  
G18  26001947.370   136641150.517      -15563.012          44.000  
G22  23896949.179   125579320.354      -11279.595          48.000  
G10  21120002.124   110986356.098      -12613.058          49.000  
G23  22112084.119   116199870.012      -14971.833          48.000  
G24  25895466.709   136081591.660      -15802.852          44.000  
G21  26720896.269   140419252.375      -12007.430          44.000  
> 2022  2 14  0  0 40.0030000  0 11                     
G25  21601362.749   113515922.261      -12259.448          49.000  
G32  22946096.230   120582561.287      -11356.113          48.000  
G31  22478347.987   118124520.314      -11102.234          48.000  
G26  25543924.646   134234218.954       -8979.397          44.000  
G12  23541018.361   123708860.697      -14388.540          48.000  
G18  26004908.962   136656713.869      -15562.393          44.000  
G22  23899095.612   125590600.221      -11278.989          48.000  
G10  21122402.508   110998970.067      -12613.630          49.000  
G23  22114932.976   116214842.435      -14971.846          48.000  
G24  25898473.951   136097394.751      -15802.138          44.000  
G21  26723181.342   140431260.259      -12007.022          44.000  
> 2022  2 14  0  0 41.0030000  0 11                     
G25  21603696.337   113528185.155      -12264.208          49.000  
G32  22948257.714   120593920.479      -11360.031          48.000  
G31  22480461.043   118135625.842      -11106.673          48.000  
G26  25545634.044   134243201.347       -8983.438          44.000  
G12  23543757.290   123723252.608      -14393.083          48.000  
G18  26007870.955   136672279.096      -15565.988          44.000  
G22  23901242.471   125601882.157      -11282.719          48.000  
G10  21124803.443   111011586.792      -12617.986          49.000  
G23  22117782.278   116229817.488      -14976.205          48.000  
G24  25901481.567   136113199.852      -15805.997          44.000  
G21  26725466.892   140443270.670      -12011.580          44.000  
> 2022  2 14  0  0 42.0030000  0 11                     
G25  21606030.574   113540451.485      -12266.351          49.000  
G32  22950419.954   120605282.456      -11362.051          48.000  
G31  22482574.943   118146734.569      -11108.954          48.000  
G26  25547343.846   134252186.455       -8985.011          44.000  
G12  23546496.787   123737647.886      -14395.554          48.000  
G18  26010833.507   136687846.850      -15567.612          44.000  
G22  23903389.782   125613166.810      -11284.606          48.000  
G10  21127205.026   111024206.937      -12620.149          49.000  
G23  22120633.091   116244795.820      -14978.586          48.000  
G24  25904489.695   136129007.589      -15807.658          44.000  
G21  26727753.039   140455284.233      -12013.743          44.000  
> 2022  2 14  0  0 43.0030000  0 11                     
G25  21608363.821   113552712.600      -12258.569          49.000  
G32  22952581.043   120616638.522      -11353.189          48.000  
G31  22484687.836   118157837.824      -11100.668          48.000  
G26  25549052.577   134261165.639       -8976.238          44.000  
G12  23549235.240   123752037.862      -14387.489          48.000  
G18  26013794.761   136703408.457      -15558.885          44.000  
G22  23905535.972   125624445.493      -11275.805          48.000  
G10  21129605.573   111036821.818      -12612.338          49.000  
G23  22123482.374   116259768.748      -14970.525          48.000  
G24  25907496.671   136144809.306      -15798.857          44.000  
G21  26730038.136   140467292.271      -12005.326          44.000  
> 2022  2 14  0  0 44.0030000  0 11                     
G25  21610696.930   113564972.960      -12261.615          49.000  
G32  22954741.688   120627993.148      -11355.365          48.000  
G31  22486800.574   118168940.063      -11103.170          48.000  
G26  25550760.947   134270143.349       -8978.658          44.000  
G12  23551973.466   123766426.987      -14390.268          48.000  
G18  26016755.730   136718968.356      -15560.607          44.000  
G22  23907681.932   125635722.675      -11278.000          48.000  
G10  21132005.996   111049435.920      -12615.377          49.000  
G23  22126331.653   116274740.727      -14973.046          48.000  
G24  25910503.358   136160609.439      -15800.878          44.000  
G21  26732323.006   140479299.256      -12007.998          44.000  
> 2022  2 14  0  0 45.0030000  0 11                     
G25  21613030.037   113577233.405      -12258.862          49.000  
G32  22956901.985   120639347.201      -11352.075          48.000  
G31  22488913.073   118180042.162      -11100.348          48.000  
G26  25552469.251   134279120.432       -8975.143          44.000  
G12  23554711.727   123780816.123      -14387.478          48.000  
G18  26019716.576   136734527.432      -15557.105          44.000  
G22  23909827.654   125646999.197      -11274.558          48.000  
G10  21134406.393   111062050.055      -12612.636          49.000  
G23  22129180.365   116289712.622      -14970.146          48.000  
G24  25913509.867   136176408.867      -15797.426          44.000  
G21  26734607.821   140491306.033      -12005.061          44.000  
> 2022  2 14  0  0 46.0030000  0 11                     
G25  21615363.404   113589495.079      -12262.085          49.000  
G32  22959062.491   120650701.805      -11354.872          48.000  
G31  22491025.797   118191145.238      -11103.492          48.000  
G26  25554177.621   134288098.029       -8977.865          44.000  
G12  23557450.311   123795206.407      -14390.826          48.000  
G18  26022677.487   136750086.792      -15559.444          44.000  
G22  23911973.552   125658276.213      -11277.220          48.000  
G10  21136807.059   111074665.383      -12615.699          49.000  
G23  22132028.837   116304685.575      -14973.451          48.000  
G24  25916516.529   136192208.713      -15800.031          44.000  
G21  26736892.837   140503313.744      -12008.018          44.000  
> 2022  2 14  0  0 47.0030000  0 11                     
G25  21617697.469   113601760.472      -12268.493          49.000  
G32  22961223.670   120662059.453      -11361.017          48.000  
G31  22493139.094   118202251.799      -11110.214          48.000  
G26  25555886.665   134297078.655       -8984.025          44.000  
G12  23560189.468   123809600.332      -14397.568          48.000  
G18  26025638.897   136765648.958      -15565.441          44.000  
G22  23914120.052   125669556.204      -11283.279          48.000  
G10  21139208.426   111087284.384      -12621.956          49.000  
G23  22134878.927   116319662.063      -14980.181          48.000  
G24  25919523.737   136208011.475      -15806.108          44.000  
G21  26739178.553   140515324.890      -12014.551          44.000  
> 2022  2 14  0  0 48.0030000  0 11                     
G25  21620031.684   113614026.680      -12264.893          49.000  
G32  22963384.861   120673417.223      -11356.265          48.000  
G31  22495252.549   118213358.894      -11105.676          48.000  
G26  25557595.599   134306059.343       -8979.165          44.000  
G12  23562928.791   123823994.972      -14393.354          48.000  
G18  26028600.303   136781210.980      -15560.319          44.000  
G22  23916266.572   125680836.254      -11278.451          48.000  
G10  21141609.915   111099904.181      -12618.577          49.000  
G23  22137728.971   116334639.174      -14975.867          48.000  
G24  25922530.932   136223814.220      -15801.098          44.000  
G21  26741464.359   140527336.535      -12010.168          44.000  
> 2022  2 14  0  0 49.0030000  0 11                     
G25  21622365.436   113626290.444      -12264.026          49.000  
G32  22965545.582   120684771.877      -11354.852          48.000  
G31  22497365.303   118224463.314      -11104.824          48.000  
G26  25559304.006   134315036.880       -8977.612          44.000  
G12  23565667.700   123838387.089      -14392.546          48.000  
G18  26031561.020   136796769.644      -15558.805          44.000  
G22  23918412.395   125692113.120      -11276.970          48.000  
G10  21144010.932   111112521.481      -12617.494          49.000  
G23  22140578.334   116349613.662      -14975.019          48.000  
G24  25925537.530   136239613.725      -15799.614          44.000  
G21  26743749.737   140539345.449      -12009.213          44.000  
> 2022  2 14  0  0 50.0030000  0 11                     
G25  21624699.213   113638554.348      -12264.533          49.000  
G32  22967705.944   120696125.976      -11354.383          48.000  
G31  22499478.355   118235567.609      -11104.842          48.000  
G26  25561012.317   134324013.833       -8977.332          44.000  
G12  23568406.706   123852779.249      -14392.797          48.000  
G18  26034521.636   136812327.494      -15558.015          44.000  
G22  23920558.162   125703389.368      -11276.502          48.000  
G10  21146411.969   111125138.890      -12617.975          49.000  
G23  22143427.448   116364588.093      -14974.962          48.000  
G24  25928543.985   136255412.540      -15799.056          44.000  
G21  26746034.932   140551354.185      -12009.192          44.000  
> 2022  2 14  0  0 51.0030000  0 11                     
G25  21627033.007   113650818.385      -12264.429          49.000  
G32  22969866.560   120707479.565      -11353.990          48.000  
G31  22501591.263   118246671.815      -11104.761          48.000  
G26  25562720.523   134332990.239       -8976.880          44.000  
G12  23571145.594   123867171.485      -14392.953          48.000  
G18  26037482.108   136827884.574      -15557.347          44.000  
G22  23922703.845   125714665.037      -11276.167          48.000  
G10  21148813.018   111137756.390      -12617.908          49.000  
G23  22146277.194   116379562.501      -14975.037          48.000  
G24  25931550.310   136271210.711      -15798.542          44.000  
G21  26748320.192   140563362.783      -12009.122          44.000  
> 2022  2 14  0  0 52.0030000  0 11                     
G25  21629366.822   113663082.503      -12263.586          49.000  
G32  22972027.003   120718832.541      -11352.303          48.000  
G31  22503704.212   118257775.843      -11103.559          48.000  
G26  25564428.449   134341965.992       -8975.089          44.000  
G12  23573884.583   123881563.702      -14391.864          48.000  
G18  26040442.425   136843440.792      -15555.446          44.000  
G22  23924849.400   125725940.023      -11274.369          48.000  
G10  21151214.092   111150373.933      -12617.160          49.000  
G23  22149126.061   116394536.798      -14973.777          48.000  
G24  25934556.515   136287008.133      -15796.666          44.000  
G21  26750605.310   140575371.157      -12007.806          44.000  
> 2022  2 14  0  0 53.0030000  0 11                     
G25  21631700.977   113675348.333      -12266.419          49.000  
G32  22974187.447   120730186.537      -11353.962          48.000  
G31  22505817.554   118268881.321      -11105.725          48.000  
G26  25566136.658   134350942.726       -8976.731          44.000  
G12  23576623.816   123895957.533      -14394.141          48.000  
G18  26043402.891   136858997.779      -15556.979          44.000  
G22  23926995.162   125737215.959      -11275.934          48.000  
G10  21153615.483   111162993.149      -12619.884          49.000  
G23  22151975.253   116409512.617      -14976.130          48.000  
G24  25937562.878   136302806.447      -15798.226          44.000  
G21  26752890.788   140587380.925      -12009.804          44.000  
> 2022  2 14  0  0 54.0030000  0 11                     
G25  21634035.152   113687614.311      -12265.186          49.000  
G32  22976347.793   120741540.034      -11352.797          48.000  
G31  22507930.666   118279986.726      -11104.845          48.000  
G26  25567844.805   134359918.946       -8975.615          44.000  
G12  23579363.133   123910351.453      -14393.468          48.000  
G18  26046363.238   136874553.991      -15555.247          44.000  
G22  23929140.707   125748491.322      -11274.480          48.000  
G10  21156016.886   111175612.472      -12618.510          49.000  
G23  22154824.596   116424488.424      -14975.342          48.000  
G24  25940569.125   136318604.124      -15796.870          44.000  
G21  26755176.193   140599390.585      -12009.162          44.000  
> 2022  2 14  0  0 55.0030000  0 11                     
G25  21636369.084   113699879.112      -12264.318          49.000  
G32  22978507.789   120752891.644      -11350.740          48.000  
G31  22510043.891   118291090.673      -11103.183          48.000  
G26  25569552.541   134368893.213       -8973.284          44.000  
G12  23582102.053   123924744.081      -14391.914          48.000  
G18  26049323.053   136890108.080      -15553.001          44.000  
G22  23931285.877   125759764.750      -11272.431          48.000  
G10  21158418.063   111188230.589      -12617.771          49.000  
G23  22157674.098   116439462.845      -14973.726          48.000  
G24  25943574.960   136334399.786      -15794.548          44.000  
G21  26757461.280   140611398.734      -12007.266          44.000  
> 2022  2 14  0  0 56.0030000  0 11                     
G25  21638702.894   113712143.118      -12263.580          49.000  
G32  22980667.545   120764241.807      -11349.558          48.000  
G31  22512156.751   118302193.610      -11102.622          48.000  
G26  25571259.998   134377866.007       -8972.203          44.000  
G12  23584840.946   123939135.862      -14391.510          48.000  
G18  26052282.651   136905660.467      -15551.719          44.000  
G22  23933430.768   125771036.658      -11271.346          48.000  
G10  21160819.086   111200847.862      -12616.941          49.000  
G23  22160523.370   116454436.316      -14973.216          48.000  
G24  25946580.519   136350193.875      -15793.461          44.000  
G21  26759746.161   140623405.810      -12006.657          44.000  
> 2022  2 14  0  0 57.0030000  0 11                     
G25  21641037.456   113724411.209      -12267.327          49.000  
G32  22982828.045   120775595.352      -11352.784          48.000  
G31  22514270.254   118313300.346      -11106.195          48.000  
G26  25572968.186   134386842.150       -8975.579          44.000  
G12  23587580.532   123953531.608      -14395.269          48.000  
G18  26055242.824   136921215.979      -15554.726          44.000  
G22  23935576.371   125782311.877      -11274.419          48.000  
G10  21163220.876   111213469.183      -12620.452          49.000  
G23  22163373.609   116469413.655      -14976.748          48.000  
G24  25949586.681   136365991.199      -15796.458          44.000  
G21  26762031.954   140635416.646      -12010.173          44.000  
> 2022  2 14  0  0 58.0030000  0 11                     
G25  21643371.827   113736678.218      -12268.310          49.000  
G32  22984988.445   120786947.128      -11352.485          48.000  
G31  22516383.761   118324405.750      -11106.306          48.000  
G26  25574675.928   134395816.479       -8975.026          44.000  
G12  23590319.834   123967926.187      -14395.596          48.000  
G18  26058202.613   136936769.455      -15553.983          44.000  
G22  23937721.643   125793585.250      -11273.833          48.000  
G10  21165622.461   111226089.384      -12621.387          49.000  
G23  22166223.625   116484389.725      -14976.989          48.000  
G24  25952592.472   136381786.626      -15796.029          44.000  
G21  26764317.252   140647426.104      -12010.335          44.000  
> 2022  2 14  0  0 59.0030000  0 11                     
G25  21645706.698   113748947.772      -12270.172          49.000  
G32  22987148.967   120798300.810      -11353.580          48.000  
G31  22518497.608   118335513.484      -11107.794          48.000  
G26  25576384.016   134404792.680       -8975.788          44.000  
G12  23593059.733   123982323.248      -14397.129          48.000  
G18  26061162.635   136952324.589      -15554.784          44.000  
G22  23939867.198   125804860.481      -11274.987          48.000  
G10  21168024.519   111238712.104      -12623.473          49.000  
G23  22169074.118   116499368.195      -14978.620          48.000  
G24  25955598.555   136397583.826      -15796.962          44.000  
G21  26766603.042   140659437.844      -12011.864          44.000  
> 2022  2 14  0  1  0.0030000  0 11                     
G25  21648041.609   113761217.579      -12269.428          49.000  
G32  22989309.363   120809654.056      -11352.351          48.000  
G31  22520611.430   118346621.220      -11107.067          48.000  
G26  25578092.075   134413768.426       -8974.798          44.000  
G12  23595799.607   123996720.484      -14396.676          48.000  
G18  26064122.619   136967879.041      -15553.527          44.000  
G22  23942012.631   125816135.196      -11273.748          48.000  
G10  21170426.611   111251335.025      -12622.765          49.000  
G23  22171924.767   116514346.734      -14977.957          48.000  
G24  25958604.546   136413380.466      -15795.722          44.000  
G21  26768888.748   140671449.533      -12011.084          44.000  
> 2022  2 14  0  1  1.0030000  0 11                     
G25  21650376.909   113773489.416      -12270.452          49.000  
G32  22991470.002   120821008.663      -11353.273          48.000  
G31  22522725.503   118357730.736      -11108.334          48.000  
G26  25579800.394   134422745.484       -8975.558          44.000  
G12  23598539.832   124011119.660      -14398.063          48.000  
G18  26067082.768   136983434.578      -15553.974          44.000  
G22  23944158.395   125827411.202      -11274.521          48.000  
G10  21172829.083   111263959.930      -12623.451          49.000  
G23  22174775.438   116529327.115      -14979.285          48.000  
G24  25961610.753   136429178.318      -15796.376          44.000  
G21  26771174.921   140683462.942      -12012.141          44.000  
> 2022  2 14  0  1  2.0030000  0 11                     
G25  21652711.711   113785758.808      -12268.805          49.000  
G32  22993630.029   120832360.143      -11350.759          48.000  
G31  22524838.966   118368837.556      -11106.221          48.000  
G26  25581508.116   134431719.366       -8973.174          44.000  
G12  23601279.552   124025516.307      -14396.167          48.000  
G18  26070042.180   136998986.749      -15551.337          44.000  
G22  23946303.594   125838684.034      -11271.966          48.000  
G10  21175231.081   111276582.373      -12621.923          49.000  
G23  22177625.644   116544304.874      -14977.226          48.000  
G24  25964616.370   136444972.916      -15793.747          44.000  
G21  26773460.454   140695473.622      -12010.070          44.000  
> 2022  2 14  0  1  3.0030000  0 11                     
G25  21655046.424   113798027.732      -12269.470          49.000  
G32  22995789.880   120843710.464      -11350.802          48.000  
G31  22526952.483   118379943.650      -11106.755          48.000  
G26  25583215.641   134440692.085       -8973.243          44.000  
G12  23604019.205   124039912.386      -14396.801          48.000  
G18  26073001.419   137014537.500      -15551.185          44.000  
G22  23948448.482   125849955.620      -11271.894          48.000  
G10  21177632.984   111289204.295      -12622.443          49.000  
G23  22180475.942   116559281.958      -14977.746          48.000  
G24  25967621.776   136460766.226      -15793.714          44.000  
G21  26775745.904   140707483.519      -12010.558          44.000  
> 2022  2 14  0  1  4.0030000  0 11                     
G25  21657381.270   113810297.220      -12271.490          49.000  
G32  22997949.971   120855060.670      -11352.186          48.000  
G31  22529066.176   118391050.057      -11108.619          48.000  
G26  25584923.088   134449664.623       -8974.257          44.000  
G12  23606758.900   124054308.942      -14398.800          48.000  
G18  26075960.552   137030087.880      -15552.220          44.000  
G22  23950593.323   125861227.031      -11273.191          48.000  
G10  21180034.991   111301826.747      -12624.404          49.000  
G23  22183326.631   116574259.439      -14979.797          48.000  
G24  25970627.081   136476559.283      -15794.977          44.000  
G21  26778031.336   140719493.676      -12012.221          44.000  
> 2022  2 14  0  1  5.0030000  0 11                     
G25  21659716.680   113822569.578      -12272.717          49.000  
G32  23000110.287   120866413.064      -11352.403          48.000  
G31  22531180.359   118402159.079      -11109.262          48.000  
G26  25586630.957   134458639.346       -8974.833          44.000  
G12  23609499.093   124068708.279      -14399.655          48.000  
G18  26078920.156   137045640.188      -15552.187          44.000  
G22  23952738.492   125872500.564      -11273.629          48.000  
G10  21182437.535   111314452.031      -12625.805          49.000  
G23  22186177.437   116589239.585      -14980.436          48.000  
G24  25973632.831   136492354.397      -15795.039          44.000  
G21  26780317.299   140731506.413      -12013.067          44.000  
> 2022  2 14  0  1  6.0030000  0 11                     
G25  21662052.401   113834843.626      -12275.878          49.000  
G32  23002270.916   120877766.463      -11354.457          48.000  
G31  22533294.540   118413269.532      -11111.737          48.000  
G26  25588339.055   134467615.000       -8976.708          44.000  
G12  23612239.628   124083109.214      -14402.414          48.000  
G18  26081879.817   137061193.252      -15554.110          44.000  
G22  23954883.958   125883775.037      -11275.396          48.000  
G10  21184840.425   111327078.962      -12628.604          49.000  
G23  22189028.392   116604221.240      -14983.023          48.000  
G24  25976638.737   136508150.383      -15797.055          44.000  
G21  26782603.533   140743520.528      -12015.414          44.000  
> 2022  2 14  0  1  7.0030000  0 11                     
G25  21664388.171   113847117.971      -12274.218          49.000  
G32  23004431.320   120889119.531      -11353.058          48.000  
G31  22535409.186   118424380.090      -11110.778          48.000  
G26  25590047.031   134476590.312       -8975.323          44.000  
G12  23614980.174   124097510.404      -14401.389          48.000  
G18  26084839.347   137076745.716      -15552.307          44.000  
G22  23957029.196   125895049.092      -11273.931          48.000  
G10  21187243.335   111339706.154      -12627.006          49.000  
G23  22191879.521   116619203.060      -14982.117          48.000  
G24  25979644.513   136523945.903      -15795.424          44.000  
G21  26784889.773   140755534.677      -12014.012          44.000  
> 2022  2 14  0  1  8.0030000  0 11                     
G25  21666723.771   113859391.466      -12274.578          49.000  
G32  23006591.371   120900471.024      -11352.298          48.000  
G31  22537523.162   118435489.497      -11110.506          48.000  
G26  25591754.680   134485564.000       -8974.439          44.000  
G12  23617720.687   124111910.620      -14401.394          48.000  
G18  26087798.596   137092296.364      -15551.382          44.000  
G22  23959174.277   125906321.527      -11273.191          48.000  
G10  21189646.052   111352332.457      -12627.300          49.000  
G23  22194730.021   116634183.796      -14981.902          48.000  
G24  25982650.002   136539739.713      -15794.565          44.000  
G21  26787175.731   140767547.653      -12013.927          44.000  
> 2022  2 14  0  1  9.0030000  0 11                     
G25  21669059.508   113871665.719      -12273.980          49.000  
G32  23008751.581   120911822.613      -11351.030          48.000  
G31  22539636.915   118446599.430      -11109.577          48.000  
G26  25593462.339   134494537.759       -8973.232          44.000  
G12  23620461.291   124126311.517      -14400.641          48.000  
G18  26090757.734   137107846.848      -15549.873          44.000  
G22  23961319.280   125917593.990      -11271.907          48.000  
G10  21192048.941   111364959.489      -12626.816          49.000  
G23  22197580.162   116649165.126      -14980.996          48.000  
G24  25985655.454   136555533.490      -15793.187          44.000  
G21  26789461.830   140779561.102      -12013.113          44.000  
> 2022  2 14  0  1 10.0030000  0 11                     
G25  21671395.214   113883939.774      -12273.279          49.000  
G32  23010911.556   120923173.310      -11349.288          48.000  
G31  22541751.194   118457708.897      -11108.259          48.000  
G26  25595169.826   134503510.582       -8971.421          44.000  
G12  23623201.773   124140712.114      -14399.473          48.000  
G18  26093716.690   137123396.171      -15547.808          44.000  
G22  23963464.193   125928865.479      -11270.070          48.000  
G10  21194451.767   111377586.267      -12625.886          49.000  
G23  22200430.989   116664146.051      -14979.803          48.000  
G24  25988660.783   136571326.235      -15791.276          44.000  
G21  26791747.817   140791574.031      -12011.752          44.000  
> 2022  2 14  0  1 11.0030000  0 11                     
G25  21673731.157   113896215.177      -12272.748          49.000  
G32  23013072.205   120934524.673      -11347.506          48.000  
G31  22543865.831   118468819.454      -11106.780          48.000  
G26  25596877.430   134512484.040       -8969.747          44.000  
G12  23625942.461   124155113.968      -14398.313          48.000  
G18  26096675.785   137138945.902      -15545.579          44.000  
G22  23965609.164   125940137.570      -11268.170          48.000  
G10  21196854.853   111390214.375      -12625.541          49.000  
G23  22203282.100   116679128.129      -14978.236          48.000  
G24  25991666.177   136587119.512      -15789.321          44.000  
G21  26794033.960   140803588.000      -12010.355          44.000  
> 2022  2 14  0  1 12.0030000  0 11                     
G25  21676067.367   113908491.838      -12277.454          49.000  
G32  23015232.365   120945876.689      -11353.083          48.000  
G31  22545980.360   118479931.108      -11112.917          48.000  
G26  25598585.139   134521458.123       -8975.249          44.000  
G12  23628683.376   124169517.066      -14404.436          48.000  
G18  26099634.810   137154496.052      -15551.096          44.000  
G22  23967754.244   125951410.248      -11273.724          48.000  
G10  21199258.165   111402843.679      -12630.081          49.000  
G23  22206134.005   116694111.377      -14984.615          48.000  
G24  25994671.658   136602913.317      -15794.833          44.000  
G21  26796320.365   140815603.011      -12016.260          44.000  
> 2022  2 14  0  1 13.0030000  0 11                     
G25  21678403.822   113920769.676      -12278.253          49.000  
G32  23017392.528   120957229.131      -11352.780          48.000  
G31  22548094.653   118491043.607      -11113.015          48.000  
G26  25600292.913   134530432.579       -8974.781          44.000  
G12  23631424.455   124183921.184      -14404.751          48.000  
G18  26102593.947   137170046.346      -15550.380          44.000  
G22  23969899.352   125962683.294      -11273.370          48.000  
G10  21201661.706   111415474.134      -12630.617          49.000  
G23  22208984.911   116709095.532      -14984.717          48.000  
G24  25997677.148   136618707.407      -15794.335          44.000  
G21  26798606.943   140827618.826      -12016.425          44.000  
> 2022  2 14  0  1 14.0030000  0 11                     
G25  21680740.104   113933046.741      -12274.470          49.000  
G32  23019552.563   120968580.149      -11348.087          48.000  
G31  22550208.831   118502155.108      -11108.703          48.000  
G26  25602000.485   134539405.593       -8970.166          44.000  
G12  23634165.502   124198324.462      -14400.658          48.000  
G18  26105552.735   137185594.981      -15545.556          44.000  
G22  23972044.161   125973954.824      -11268.472          48.000  
G10  21204065.080   111428103.784      -12627.170          49.000  
G23  22211836.023   116724078.753      -14980.560          48.000  
G24  26000682.395   136634499.941      -15789.560          44.000  
G21  26800893.242   140839633.589      -12011.907          44.000  
> 2022  2 14  0  1 15.0030000  0 11                     
G25  21683076.159   113945322.576      -12277.618          49.000  
G32  23021712.102   120979929.230      -11350.439          48.000  
G31  22552322.858   118513265.108      -11111.593          48.000  
G26  25603707.653   134548376.618       -8972.268          44.000  
G12  23636906.265   124212726.403      -14403.651          48.000  
G18  26108511.159   137201141.411      -15547.679          44.000  
G22  23974188.590   125985224.377      -11270.945          48.000  
G10  21206468.217   111440732.162      -12630.195          49.000  
G23  22214686.967   116739060.542      -14983.487          48.000  
G24  26003687.286   136650290.404      -15791.771          44.000  
G21  26803179.362   140851646.809      -12014.969          44.000  
> 2022  2 14  0  1 16.0030000  0 11                     
G25  21685412.895   113957601.928      -12279.577          49.000  
G32  23023871.844   120991281.176      -11351.479          48.000  
G31  22554437.500   118524378.398      -11112.978          48.000  
G26  25605415.391   134557350.489       -8973.368          44.000  
G12  23639647.704   124227131.800      -14405.267          48.000  
G18  26111470.122   137216690.452      -15548.442          44.000  
G22  23976333.506   125996496.717      -11271.871          48.000  
G10  21208872.004   111453364.013      -12632.081          49.000  
G23  22217538.440   116754045.679      -14984.908          48.000  
G24  26006692.660   136666083.596      -15792.638          44.000  
G21  26805466.061   140863663.259      -12016.108          44.000  
> 2022  2 14  0  1 17.0030000  0 11                     
G25  21687749.665   113969881.595      -12276.690          49.000  
G32  23026032.273   121002632.741      -11347.848          48.000  
G31  22556552.451   118535491.736      -11109.789          48.000  
G26  25607122.977   134566323.931       -8969.641          44.000  
G12  23642389.189   124241537.403      -14402.246          48.000  
G18  26114428.923   137232238.850      -15544.536          44.000  
G22  23978478.475   126007768.605      -11268.138          48.000  
G10  21211275.844   111465996.139      -12629.197          49.000  
G23  22220389.934   116769030.932      -14981.764          49.000  
G24  26009697.915   136681876.273      -15788.898          44.000  
G21  26807752.726   140875679.720      -12012.881          44.000  
> 2022  2 14  0  1 18.0030000  0 11                     
G25  21690086.064   113982159.312      -12274.609          49.000  
G32  23028192.192   121013981.702      -11345.034          48.000  
G31  22558667.028   118546602.898      -11107.452          48.000  
G26  25608830.041   134575294.741       -8966.751          44.000  
G12  23645130.219   124255940.993      -14400.104          48.000  
G18  26117387.153   137247784.394      -15541.605          44.000  
G22  23980622.974   126019037.832      -11265.401          48.000  
G10  21213679.317   111478626.289      -12627.173          49.000  
G23  22223241.771   116784014.075      -14979.369          48.000  
G24  26012702.670   136697666.212      -15785.965          44.000  
G21  26810038.972   140887693.960      -12010.639          44.000  
> 2022  2 14  0  1 19.0030000  0 11                     
G25  21692422.856   113994439.009      -12280.097          49.000  
G32  23030352.401   121025331.980      -11350.561          48.000  
G31  22560781.621   118557715.802      -11113.344          48.000  
G26  25610537.412   134584266.828       -8972.166          44.000  
G12  23647871.636   124270346.484      -14406.019          48.000  
G18  26120345.618   137263330.979      -15546.583          44.000  
G22  23982767.634   126030308.286      -11270.661          48.000  
G10  21216083.174   111491258.367      -12632.687          49.000  
G23  22226093.470   116798999.026      -14985.340          48.000  
G24  26015707.661   136713457.333      -15791.305          44.000  
G21  26812325.543   140899709.870      -12016.335          44.000  
> 2022  2 14  0  1 20.0030000  0 11                     
G25  21694759.339   114006717.075      -12277.416          49.000  
G32  23032511.840   121036679.900      -11346.999          48.000  
G31  22562895.732   118568826.784      -11110.304          48.000  
G26  25612244.304   134593236.527       -8968.597          44.000  
G12  23650612.617   124284750.216      -14403.073          48.000  
G18  26123303.601   137278874.971      -15542.955          44.000  
G22  23984911.816   126041576.333      -11267.176          48.000  
G10  21218486.693   111503888.773      -12629.602          49.000  
G23  22228945.106   116813982.129      -14982.525          48.000  
G24  26018712.106   136729245.966      -15787.679          44.000  
G21  26814611.769   140911723.823      -12013.253          44.000  
> 2022  2 14  0  1 21.0030000  0 11                     
G25  21697095.459   114018993.284      -12280.822          49.000  
G32  23034670.882   121048025.319      -11349.949          48.000  
G31  22565009.988   118579935.688      -11113.693          48.000  
G26  25613950.818   134602203.701       -8971.757          44.000  
G12  23653353.351   124299152.038      -14406.652          48.000  
G18  26126261.046   137294416.199      -15545.712          44.000  
G22  23987055.559   126052841.804      -11269.940          48.000  
G10  21220889.844   111516517.291      -12632.983          49.000  
G23  22231796.468   116828963.207      -14985.903          48.000  
G24  26021716.043   136745031.961      -15790.544          44.000  
G21  26816897.621   140923735.647      -12016.567          44.000  
> 2022  2 14  0  1 22.0030000  0 11                     
G25  21699431.949   114031271.450      -12276.343          49.000  
G32  23036830.005   121059372.004      -11345.004          48.000  
G31  22567124.371   118591046.285      -11109.100          48.000  
G26  25615657.501   134611172.093       -8966.605          44.000  
G12  23656094.373   124313555.709      -14402.204          48.000  
G18  26129218.656   137309958.427      -15540.388          44.000  
G22  23989199.443   126064108.472      -11264.892          48.000  
G10  21223293.348   111529147.726      -12628.311          49.000  
G23  22234647.597   116843946.047      -14981.437          49.000  
G24  26024720.283   136760819.081      -15785.288          44.000  
G21  26819183.792   140935749.117      -12011.942          44.000  
> 2022  2 14  0  1 23.0030000  0 11                     
G25  21701769.001   114043552.513      -12278.839          49.000  
G32  23038989.688   121070720.910      -11346.287          48.000  
G31  22569239.045   118602159.535      -11110.824          48.000  
G26  25617364.616   134620142.677       -8967.990          44.000  
G12  23658835.915   124327962.200      -14404.141          48.000  
G18  26132176.606   137325502.617      -15541.372          44.000  
G22  23991343.789   126075377.296      -11266.129          48.000  
G10  21225697.434   111541781.021      -12630.994          49.000  
G23  22237499.076   116858931.600      -14983.135          49.000  
G24  26027724.900   136776608.298      -15786.500          44.000  
G21  26821470.478   140947765.188      -12013.636          44.000  
> 2022  2 14  0  1 24.0030000  0 11                     
G25  21704105.951   114055833.046      -12280.268          49.000  
G32  23041148.935   121082068.618      -11347.269          48.000  
G31  22571353.889   118613272.017      -11112.280          48.000  
G26  25619071.440   134629112.017       -8968.740          44.000  
G12  23661577.379   124342368.083      -14405.727          48.000  
G18  26135134.317   137341045.359      -15542.165          44.000  
G22  23993487.957   126086644.856      -11267.111          48.000  
G10  21228101.386   111554413.751      -12632.474          49.000  
G23  22240350.393   116873916.455      -14984.732          48.000  
G24  26030729.320   136792396.182      -15787.450          44.000  
G21  26823756.932   140959780.437      -12014.846          44.000  
> 2022  2 14  0  1 25.0030000  0 11                     
G25  21706443.257   114068115.461      -12282.696          49.000  
G32  23043308.620   121093417.528      -11349.042          48.000  
G31  22573469.016   118624386.123      -11114.501          48.000  
G26  25620778.470   134638082.533       -8970.539          44.000  
G12  23664319.149   124356775.752      -14408.100          48.000  
G18  26138092.214   137356589.037      -15543.670          44.000  
G22  23995632.313   126097913.545      -11268.763          48.000  
G10  21230505.691   111567048.322      -12634.874          49.000  
G23  22243202.637   116888903.000      -14986.979          48.000  
G24  26033733.825   136808185.125      -15789.091          44.000  
G21  26826043.720   140971797.273      -12017.189          44.000  
> 2022  2 14  0  1 26.0030000  0 11                     
G25  21708780.644   114080398.388      -12281.341          49.000  
G32  23045468.222   121104766.255      -11346.920          48.000  
G31  22575583.920   118635500.480      -11112.779          48.000  
G26  25622485.504   134647052.837       -8968.563          44.000  
G12  23667061.131   124371183.833      -14406.521          48.000  
G18  26141050.032   137372132.283      -15541.250          44.000  
G22  23997776.608   126109181.989      -11266.615          48.000  
G10  21232910.096   111579683.365      -12633.537          49.000  
G23  22246054.370   116903889.850      -14985.236          48.000  
G24  26036738.340   136823973.755      -15786.737          44.000  
G21  26828330.584   140983814.302      -12015.369          44.000  
> 2022  2 14  0  1 27.0030000  0 11                     
G25  21711118.426   114092683.320      -12288.422          49.000  
G32  23047627.913   121116116.324      -11353.360          48.000  
G31  22577699.463   118646616.604      -11119.637          48.000  
G26  25624192.830   134656024.448       -8974.872          44.000  
G12  23669803.482   124385593.848      -14413.620          48.000  
G18  26144008.051   137387676.618      -15547.523          44.000  
G22  23999921.192   126120451.707      -11272.979          48.000  
G10  21235314.898   111592320.373      -12640.512          49.000  
G23  22248907.110   116918878.544      -14992.167          48.000  
G24  26039743.064   136839763.598      -15793.180          44.000  
G21  26830617.768   140995833.050      -12022.115          44.000  
> 2022  2 14  0  1 28.0030000  0 11                     
G25  21713456.595   114104970.302      -12283.674          49.000  
G32  23049787.928   121127467.743      -11347.788          48.000  
G31  22579815.091   118657734.503      -11114.458          48.000  
G26  25625900.354   134664997.366       -8969.276          45.000  
G12  23672546.078   124400005.798      -14408.569          48.000  
G18  26146966.211   137403222.021      -15541.613          44.000  
G22  24002065.905   126131722.700      -11267.347          48.000  
G10  21237720.051   111604959.390      -12635.637          49.000  
G23  22251760.157   116933869.073      -14987.116          48.000  
G24  26042748.002   136855554.643      -15787.324          44.000  
G21  26832905.204   141007853.531      -12016.996          44.000  
> 2022  2 14  0  1 29.0030000  0 11                     
G25  21715793.999   114117253.288      -12285.839          49.000  
G32  23051947.479   121138814.491      -11349.251          48.000  
G31  22581930.407   118668848.162      -11116.328          48.000  
G26  25627606.990   134673965.578       -8970.566          45.000  
G12  23675287.935   124414413.669      -14410.638          48.000  
G18  26149923.420   137418762.510      -15542.771          44.000  
G22  24004209.773   126142988.959      -11268.762          48.000  
G10  21240124.439   111617594.381      -12637.757          49.000  
G23  22254612.984   116948855.431      -14989.117          48.000  
G24  26045752.061   136871340.886      -15788.656          44.000  
G21  26835191.856   141019869.715      -12018.734          44.000  
> 2022  2 14  0  1 30.0040000  0 11                     
G25  21718133.515   114129547.325      -12285.197          49.000  
G32  23054108.591   121150170.701      -11347.982          48.000  
G31  22584047.475   118679971.480      -11115.526          48.000  
G26  25629314.968   134682940.843       -8969.354          45.000  
G12  23678032.271   124428834.654      -14409.979          48.000  
G18  26152883.225   137434316.396      -15541.341          44.000  
G22  24006355.398   126154264.527      -11267.454          48.000  
G10  21242531.010   111630240.724      -12636.996          49.000  
G23  22257467.440   116963855.377      -14988.312          48.000  
G24  26048758.694   136887140.896      -15787.209          44.000  
G21  26837480.462   141031896.423      -12018.105          44.000  
> 2022  2 14  0  1 31.0040000  0 11                     
G25  21720471.416   114141832.849      -12285.884          49.000  
G32  23056268.137   121161518.651      -11348.094          48.000  
G31  22586162.792   118691087.201      -11116.057          48.000  
G26  25631021.789   134691910.201       -8969.641          45.000  
G12  23680774.472   124443244.908      -14410.666          48.000  
G18  26155840.595   137449857.572      -15541.204          44.000  
G22  24008499.485   126165531.855      -11267.494          48.000  
G10  21244935.869   111642878.176      -12637.779          49.000  
G23  22260319.556   116978843.922      -14988.905          48.000  
G24  26051762.884   136902928.078      -15787.261          44.000  
G21  26839767.421   141043914.560      -12018.278          44.000  
> 2022  2 14  0  1 32.0040000  0 11                     
G25  21722809.688   114154120.279      -12285.834          49.000  
G32  23058427.900   121172867.820      -11347.252          48.000  
G31  22588278.102   118702204.569      -11115.667          48.000  
G26  25632728.856   134700880.732       -8968.634          45.000  
G12  23683517.137   124457656.973      -14410.499          48.000  
G18  26158798.119   137465399.702      -15540.138          44.000  
G22  24010643.879   126176800.328      -11266.575          48.000  
G10  21247341.100   111655517.494      -12637.835          49.000  
G23  22263172.076   116993834.173      -14988.568          48.000  
G24  26054767.257   136918716.342      -15786.285          44.000  
G21  26842054.703   141055934.316      -12018.103          44.000  
> 2022  2 14  0  1 33.0040000  0 11                     
G25  21725147.727   114166406.605      -12286.922          49.000  
G32  23060587.097   121184215.198      -11347.546          48.000  
G31  22590393.234   118713320.571      -11116.398          48.000  
G26  25634435.563   134709849.448       -8968.932          45.000  
G12  23686259.530   124472067.834      -14411.343          48.000  
G18  26161755.268   137480939.795      -15540.249          44.000  
G22  24012787.777   126188066.945      -11266.812          48.000  
G10  21249746.095   111668155.663      -12638.726          49.000  
G23  22266023.928   117008823.132      -14989.325          48.000  
G24  26057771.323   136934502.678      -15786.490          44.000  
G21  26844341.733   141067952.642      -12018.641          44.000  
> 2022  2 14  0  1 34.0040000  0 11                     
G25  21727485.553   114178691.747      -12286.026          49.000  
G32  23062746.024   121195560.735      -11346.161          48.000  
G31  22592508.515   118724435.159      -11115.384          48.000  
G26  25636141.889   134718816.277       -8967.435          45.000  
G12  23689001.752   124486477.438      -14410.414          48.000  
G18  26164712.073   137496477.763      -15538.407          44.000  
G22  24014931.384   126199331.647      -11265.267          48.000  
G10  21252150.846   111680792.605      -12637.732          49.000  
G23  22268875.629   117023810.738      -14988.463          48.000  
G24  26060775.006   136950287.031      -15784.825          44.000  
G21  26846628.440   141079969.513      -12017.593          44.000  
> 2022  2 14  0  1 35.0040000  0 11                     
G25  21729824.309   114190981.774      -12290.243          49.000  
G32  23064905.594   121206910.480      -11349.905          48.000  
G31  22594624.498   118735554.385      -11119.603          48.000  
G26  25637849.103   134727787.291       -8971.137          45.000  
G12  23691744.915   124500891.850      -14414.871          48.000  
G18  26167669.649   137512019.696      -15541.937          44.000  
G22  24017075.777   126210600.497      -11268.982          48.000  
G10  21254556.537   111693434.405      -12642.106          49.000  
G23  22271728.057   117038803.046      -14992.790          48.000  
G24  26063779.446   136966075.468      -15788.529          44.000  
G21  26848916.043   141091990.972      -12021.721          44.000  
> 2022  2 14  0  1 36.0040000  0 11                     
G25  21732163.073   114203271.955      -12284.264          49.000  
G32  23067065.234   121218259.643      -11342.725          48.000  
G31  22596740.347   118746673.458      -11112.917          48.000  
G26  25639556.102   134736757.681       -8963.894          45.000  
G12  23694488.061   124515306.272      -14408.518          48.000  
G18  26170627.025   137527560.790      -15534.596          44.000  
G22  24019220.017   126221868.692      -11261.819          48.000  
G10  21256962.231   111706076.322      -12635.986          49.000  
G23  22274580.906   117053795.257      -14985.988          48.000  
G24  26066783.775   136981863.186      -15781.287          44.000  
G21  26851203.648   141104012.232      -12015.059          44.000  
> 2022  2 14  0  1 37.0040000  0 11                     
G25  21734501.747   114215561.579      -12287.699          49.000  
G32  23069224.745   121229607.644      -11345.628          48.000  
G31  22598855.864   118757791.789      -11116.060          48.000  
G26  25641262.929   134745726.882       -8966.756          45.000  
G12  23697231.118   124529720.102      -14411.666          48.000  
G18  26173584.165   137543100.450      -15537.079          44.000  
G22  24021364.021   126233135.655      -11264.464          48.000  
G10  21259367.823   111718717.638      -12639.591          49.000  
G23  22277433.075   117068786.799      -14989.253          48.000  
G24  26069787.886   136997649.596      -15783.893          44.000  
G21  26853491.064   141116032.700      -12018.168          44.000  
> 2022  2 14  0  1 38.0040000  0 11                     
G25  21736839.979   114227848.920      -12284.558          49.000  
G32  23071383.470   121240952.660      -11342.007          48.000  
G31  22600970.892   118768907.577      -11113.069          48.000  
G26  25642969.190   134754693.061       -8963.126          45.000  
G12  23699973.678   124544131.553      -14408.773          48.000  
G18  26176540.735   137558636.877      -15533.238          44.000  
G22  24023507.472   126244399.568      -11260.858          48.000  
G10  21261772.982   111731356.621      -12636.130          49.000  
G23  22280285.078   117083775.857      -14986.352          48.000  
G24  26072791.425   137013432.903      -15780.294          44.000  
G21  26855778.055   141128050.560      -12014.990          44.000  
> 2022  2 14  0  1 39.0040000  0 11                     
G25  21739178.796   114240139.141      -12293.518          49.000  
G32  23073542.735   121252299.869      -11350.052          48.000  
G31  22603086.670   118780025.976      -11121.536          48.000  
G26  25644675.888   134763661.406       -8971.216          45.000  
G12  23702716.681   124558545.784      -14417.438          48.000  
G18  26179497.659   137574175.235      -15541.048          44.000  
G22  24025651.369   126255665.608      -11268.853          48.000  
G10  21264178.687   111743998.464      -12645.248          49.000  
G23  22283138.183   117098767.600      -14994.903          48.000  
G24  26075795.388   137029218.258      -15788.189          44.000  
G21  26858065.502   141140071.001      -12023.491          44.000  
> 2022  2 14  0  1 40.0040000  0 11                     
G25  21741518.003   114252431.548      -12291.255          49.000  
G32  23075702.280   121263648.612      -11347.709          48.000  
G31  22605202.803   118791146.341      -11119.560          48.000  
G26  25646382.743   134772631.247       -8968.857          45.000  
G12  23705460.220   124572962.134      -14415.605          48.000  
G18  26182454.745   137589714.871      -15538.461          44.000  
G22  24027795.551   126266933.112      -11266.474          48.000  
G10  21266584.782   111756642.442      -12642.792          49.000  
G23  22285991.081   117113761.361      -14992.949          48.000  
G24  26078799.557   137045005.015      -15785.791          44.000  
G21  26860353.306   141152093.355      -12021.539          44.000  
> 2022  2 14  0  1 41.0040000  0 11                     
G25  21743856.771   114264721.715      -12287.272          49.000  
G32  23077861.024   121274994.393      -11342.733          48.000  
G31  22607318.320   118802264.167      -11115.015          48.000  
G26  25648089.061   134781598.080       -8963.627          45.000  
G12  23708203.187   124587376.110      -14411.256          48.000  
G18  26185411.259   137605251.281      -15533.248          44.000  
G22  24029939.032   126278197.580      -11261.406          48.000  
G10  21268990.439   111769284.151      -12638.794          49.000  
G23  22288843.325   117128752.652      -14988.527          49.000  
G24  26081803.102   137060788.655      -15780.480          44.000  
G21  26862640.618   141164113.114      -12016.895          44.000  
> 2022  2 14  0  1 42.0040000  0 11                     
G25  21746195.552   114277011.900      -12287.776          49.000  
G32  23080019.913   121286339.538      -11342.460          48.000  
G31  22609433.922   118813381.789      -11115.123          48.000  
G26  25649795.298   134790564.258       -8963.327          45.000  
G12  23710946.212   124601790.039      -14411.519          48.000  
G18  26188367.620   137620786.800      -15532.735          44.000  
G22  24032082.371   126289461.348      -11261.023          48.000  
G10  21271396.137   111781925.828      -12639.165          49.000  
G23  22291695.662   117143743.805      -14988.784          49.000  
G24  26084806.530   137076571.540      -15780.082          44.000  
G21  26864927.913   141176132.628      -12017.019          44.000  
> 2022  2 14  0  1 43.0040000  0 11                     
G25  21748534.194   114289301.294      -12293.061          49.000  
G32  23082178.294   121297683.208      -11346.736          48.000  
G31  22611549.291   118824498.357      -11119.841          48.000  
G26  25651501.207   134799528.916       -8967.508          45.000  
G12  23713688.970   124616203.085      -14416.434          47.000  
G18  26191323.676   137636320.576      -15536.783          44.000  
G22  24034225.461   126300723.568      -11265.275          48.000  
G10  21273801.640   111794566.681      -12644.450          49.000  
G23  22294548.261   117158733.959      -14993.509          48.000  
G24  26087809.691   137092352.815      -15784.304          44.000  
G21  26867214.939   141188151.038      -12021.649          44.000  
> 2022  2 14  0  1 44.0040000  0 11                     
G25  21750873.272   114301593.118      -12292.472          49.000  
G32  23084337.166   121309028.641      -11345.808          48.000  
G31  22613664.833   118835617.127      -11119.380          48.000  
G26  25653207.450   134808495.334       -8966.814          45.000  
G12  23716432.169   124630618.484      -14416.082          47.000  
G18  26194279.967   137651855.859      -15535.538          44.000  
G22  24036368.834   126311987.491      -11264.167          48.000  
G10  21276207.593   111807209.930      -12643.857          49.000  
G23  22297400.818   117173726.386      -14993.046          48.000  
G24  26090813.088   137108135.719      -15783.271          44.000  
G21  26869502.402   141200171.586      -12021.013          44.000  
> 2022  2 14  0  1 45.0040000  0 11                     
G25  21753212.236   114313884.270      -12292.281          49.000  
G32  23086496.122   121320372.724      -11344.962          48.000  
G31  22615780.450   118846734.966      -11118.978          48.000  
G26  25654913.435   134817460.344       -8966.035          45.000  
G12  23719175.208   124645033.114      -14415.796          47.000  
G18  26197235.978   137667389.528      -15534.401          44.000  
G22  24038512.039   126323249.990      -11263.369          48.000  
G10  21278613.434   111819852.462      -12643.586          49.000  
G23  22300252.861   117188717.946      -14992.732          48.000  
G24  26093816.220   137123917.130      -15782.354          44.000  
G21  26871789.636   141212191.173      -12020.756          44.000  
> 2022  2 14  0  1 46.0040000  0 11                     
G25  21755551.625   114326177.689      -12295.132          49.000  
G32  23088654.902   121331718.367      -11346.655          48.000  
G31  22617896.446   118857854.791      -11121.019          48.000  
G26  25656619.763   134826426.877       -8967.417          45.000  
G12  23721918.554   124659449.900      -14418.021          47.000  
G18  26200192.222   137682924.500      -15535.768          44.000  
G22  24040655.443   126334513.984      -11264.978          48.000  
G10  21281019.695   111832497.231      -12646.535          49.000  
G23  22303106.305   117203711.555      -14994.824          48.000  
G24  26096819.621   137139699.963      -15783.745          44.000  
G21  26874077.226   141224212.685      -12022.706          44.000  
> 2022  2 14  0  1 47.0040000  0 11                     
G25  21757891.028   114338471.270      -12295.104          49.000  
G32  23090813.655   121343063.535      -11346.479          48.000  
G31  22620012.034   118868974.574      -11121.283          48.000  
G26  25658325.954   134835392.913       -8967.320          45.000  
G12  23724661.995   124673866.800      -14418.503          47.000  
G18  26203148.275   137698458.739      -15535.463          44.000  
G22  24042798.752   126345777.434      -11264.788          48.000  
G10  21283425.970   111845142.113      -12646.389          49.000  
G23  22305959.094   117218705.189      -14995.299          48.000  
G24  26099822.857   137155482.196      -15783.548          44.000  
G21  26876364.947   141236234.108      -12022.763          44.000  
> 2022  2 14  0  1 48.0040000  0 11                     
G25  21760231.046   114350767.884      -12298.551          49.000  
G32  23092973.123   121354411.019      -11348.734          48.000  
G31  22622128.511   118880097.103      -11124.067          48.000  
G26  25660032.673   134844361.236       -8969.679          45.000  
G12  23727405.889   124688286.602      -14421.404          47.000  
G18  26206104.774   137713995.034      -15537.441          44.000  
G22  24044942.518   126357043.134      -11267.103          48.000  
G10  21285832.824   111857789.992      -12649.735          49.000  
G23  22308813.205   117233701.611      -14997.843          48.000  
G24  26102826.470   137171266.605      -15785.713          44.000  
G21  26878653.066   141248258.233      -12025.601          44.000  
> 2022  2 14  0  1 49.0040000  0 11                     
G25  21762571.471   114363066.752      -12297.627          49.000  
G32  23095132.837   121365760.096      -11346.776          48.000  
G31  22624245.181   118891221.645      -11122.438          48.000  
G26  25661739.553   134853331.109       -8967.579          45.000  
G12  23730150.245   124702708.588      -14420.032          47.000  
G18  26209061.524   137729532.660      -15535.181          44.000  
G22  24047086.627   126368310.348      -11264.886          48.000  
G10  21288240.109   111870440.098      -12649.017          49.000  
G23  22311667.534   117248700.129      -14996.292          48.000  
G24  26105830.450   137187052.464      -15783.500          44.000  
G21  26880941.579   141260284.333      -12024.194          44.000  
> 2022  2 14  0  1 50.0040000  0 11                     
G25  21764911.807   114375365.007      -12297.066          49.000  
G32  23097292.317   121377107.896      -11346.104          48.000  
G31  22626361.976   118902345.342      -11122.239          48.000  
G26  25663446.236   134862299.676       -8966.821          45.000  
G12  23732894.555   124717129.880      -14419.932          47.000  
G18  26212018.011   137745068.742      -15534.218          44.000  
G22  24049230.485   126379576.224      -11264.229          48.000  
G10  21290647.268   111883089.536      -12648.260          49.000  
G23  22314521.337   117263697.868      -14996.265          48.000  
G24  26108834.122   137202836.918      -15782.727          44.000  
G21  26883229.929   141272309.508      -12023.766          44.000  
> 2022  2 14  0  1 51.0040000  0 11                     
G25  21767252.276   114387664.141      -12300.614          49.000  
G32  23099452.020   121388455.913      -11349.540          48.000  
G31  22628479.362   118913469.686      -11126.131          48.000  
G26  25665152.945   134871268.435       -8970.405          45.000  
G12  23735638.907   124731551.979      -14423.887          47.000  
G18  26214974.386   137760604.796      -15537.538          44.000  
G22  24051374.336   126390842.245      -11267.438          48.000  
G10  21293054.571   111895739.815      -12651.598          49.000  
G23  22317375.350   117278696.317      -15000.231          48.000  
G24  26111837.838   137218621.449      -15785.966          44.000  
G21  26885518.391   141284335.286      -12027.321          44.000  
> 2022  2 14  0  1 52.0040000  0 11                     
G25  21769593.303   114399966.061      -12302.714          49.000  
G32  23101611.530   121399806.005      -11351.018          48.000  
G31  22630596.714   118924596.525      -11127.954          48.000  
G26  25666860.079   134880239.218       -8971.676          45.000  
G12  23738383.777   124745976.739      -14425.960          47.000  
G18  26217931.118   137776142.650      -15538.672          44.000  
G22  24053518.594   126402110.268      -11268.848          48.000  
G10  21295462.391   111908392.844      -12653.704          49.000  
G23  22320229.680   117293697.315      -15002.245          48.000  
G24  26114841.884   137234407.917      -15787.353          44.000  
G21  26887807.377   141296363.523      -12029.134          44.000  
> 2022  2 14  0  1 53.0040000  0 11                     
G25  21771934.033   114412266.561      -12297.806          49.000  
G32  23103770.731   121411153.993      -11345.125          48.000  
G31  22632713.288   118935721.690      -11122.540          48.000  
G26  25668566.797   134889207.879       -8965.881          45.000  
G12  23741128.427   124760399.985      -14420.668          47.000  
G18  26220887.488   137791678.140      -15532.463          44.000  
G22  24055662.323   126413376.130      -11263.010          48.000  
G10  21297869.911   111921044.430      -12648.888          49.000  
G23  22323083.757   117308696.710      -14996.809          48.000  
G24  26117845.504   137250192.143      -15781.279          44.000  
G21  26890095.878   141308390.038      -12023.772          44.000  
> 2022  2 14  0  1 54.0040000  0 11                     
G25  21774274.584   114424566.024      -12303.024          49.000  
G32  23105929.896   121422500.247      -11348.970          48.000  
G31  22634830.152   118946845.549      -11126.683          48.000  
G26  25670273.177   134898174.763       -8969.505          45.000  
G12  23743872.824   124774822.089      -14425.154          47.000  
G18  26223843.428   137807211.637      -15535.927          44.000  
G22  24057805.820   126424640.180      -11266.664          48.000  
G10  21300277.272   111933694.934      -12654.220          49.000  
G23  22325938.008   117323694.853      -15001.025          48.000  
G24  26120848.868   137265974.498      -15784.927          44.000  
G21  26892384.196   141320415.198      -12027.959          44.000  
> 2022  2 14  0  1 55.0040000  0 11                     
G25  21776616.167   114436870.861      -12306.207          49.000  
G32  23108090.172   121433851.245      -11351.771          48.000  
G31  22636948.326   118957974.582      -11130.033          48.000  
G26  25671980.445   134907146.372       -8972.368          45.000  
G12  23746618.334   124789249.522      -14428.506          47.000  
G18  26226800.193   137822749.624      -15538.633          44.000  
G22  24059950.103   126435908.917      -11269.549          48.000  
G10  21302685.631   111946350.760      -12657.239          49.000  
G23  22328793.823   117338698.243      -15004.484          48.000  
G24  26123853.121   137281761.469      -15787.708          44.000  
G21  26894673.582   141332445.481      -12031.316          44.000  
> 2022  2 14  0  1 56.0040000  0 11                     
G25  21778958.189   114449178.160      -12308.050          49.000  
G32  23110250.653   121445204.016      -11353.141          48.000  
G31  22639066.702   118969105.815      -11131.842          48.000  
G26  25673688.053   134916119.713       -8973.794          45.000  
G12  23749364.159   124803679.313      -14430.450          47.000  
G18  26229757.274   137838289.117      -15539.756          44.000  
G22  24062094.722   126447179.342      -11270.782          48.000  
G10  21305094.461   111959009.005      -12658.843          49.000  
G23  22331649.447   117353703.885      -15006.327          48.000  
G24  26126857.661   137297550.073      -15788.914          44.000  
G21  26896963.319   141344477.907      -12032.968          44.000  
> 2022  2 14  0  1 57.0040000  0 11                     
G25  21781299.941   114461484.021      -12306.245          49.000  
G32  23112410.388   121456554.649      -11350.576          48.000  
G31  22641184.726   118980235.334      -11129.672          48.000  
G26  25675395.198   134925090.879       -8971.042          45.000  
G12  23752109.733   124818107.554      -14428.435          47.000  
G18  26232713.889   137853826.203      -15536.817          44.000  
G22  24064239.026   126458447.569      -11268.068          48.000  
G10  21307503.003   111971665.796      -12657.077          49.000  
G23  22334504.849   117368707.884      -15004.188          48.000  
G24  26129861.743   137313336.398      -15786.136          44.000  
G21  26899252.715   141356508.567      -12030.639          44.000  
> 2022  2 14  0  1 58.0040000  0 11                     
G25  21783642.186   114473792.394      -12308.483          49.000  
G32  23114570.524   121467907.141      -11352.122          48.000  
G31  22643302.740   118991367.140      -11131.674          48.000  
G26  25677102.763   134934063.887       -8972.702          45.000  
G12  23754855.810   124832538.247      -14430.584          47.000  
G18  26235670.739   137869364.901      -15538.216          44.000  
G22  24066383.624   126469717.587      -11269.581          48.000  
G10  21309912.013   111984325.041      -12659.318          49.000  
G23  22337360.278   117383714.230      -15006.230          48.000  
G24  26132866.245   137329124.452      -15787.600          44.000  
G21  26901542.577   141368541.482      -12032.714          44.000  
> 2022  2 14  0  1 59.0040000  0 11                     
G25  21785984.511   114486101.087      -12309.270          49.000  
G32  23116730.566   121479259.279      -11352.469          48.000  
G31  22645421.313   119002499.018      -11132.382          48.000  
G26  25678810.220   134943036.494       -8972.932          45.000  
G12  23757601.890   124846969.168      -14431.501          47.000  
G18  26238627.621   137884902.973      -15538.162          44.000  
G22  24068528.084   126480987.178      -11269.794          48.000  
G10  21312321.077   111996984.575      -12660.093          49.000  
G23  22340215.761   117398720.713      -15007.064          48.000  
G24  26135870.569   137344912.007      -15787.728          44.000  
G21  26903832.362   141380574.411      -12033.406          44.000  
> 2022  2 14  0  2  0.0040000  0 11                     
G25  21788326.475   114498407.994      -12306.549          49.000  
G32  23118890.352   121490608.922      -11348.831          48.000  
G31  22647539.292   119013628.833      -11129.262          48.000  
G26  25680517.154   134952006.583       -8969.292          45.000  
G12  23760347.586   124861398.186      -14428.526          47.000  
G18  26241583.951   137900438.297      -15534.369          44.000  
G22  24070672.044   126492254.211      -11266.210          48.000  
G10  21314729.780   112009642.293      -12657.430          49.000  
G23  22343070.679   117413725.193      -15003.968          48.000  
G24  26138874.332   137360696.940      -15784.093          44.000  
G21  26906121.725   141392605.229      -12030.204          44.000  
> 2022  2 14  0  2  1.0040000  0 11                     
G25  21790668.194   114510713.670      -12308.191          49.000  
G32  23121049.853   121501956.640      -11349.710          48.000  
G31  22649657.075   119024757.142      -11130.405          48.000  
G26  25682223.760   134960974.699       -8969.863          45.000  
G12  23763093.076   124875825.865      -14429.986          48.000  
G18  26244539.863   137915971.426      -15534.876          44.000  
G22  24072815.693   126503519.248      -11267.013          48.000  
G10  21317138.259   112022298.738      -12659.104          49.000  
G23  22345925.722   117428728.229      -15005.122          49.000  
G24  26141877.679   137376479.801      -15784.727          44.000  
G21  26908410.852   141404634.497      -12031.492          44.000  
> 2022  2 14  0  2  2.0040000  0 11                     
G25  21793009.707   114523018.289      -12302.175          49.000  
G32  23123208.865   121513302.670      -11343.482          48.000  
G31  22651774.337   119035884.197      -11124.645          48.000  
G26  25683930.026   134969941.117       -8963.783          45.000  
G12  23765838.277   124890252.437      -14424.245          47.000  
G18  26247495.382   137931502.614      -15528.483          44.000  
G22  24074958.916   126514782.525      -11260.689          48.000  
G10  21319546.513   112034954.075      -12652.672          49.000  
G23  22348780.151   117443730.081      -14999.466          48.000  
G24  26144880.676   137392260.845      -15778.400          44.000  
G21  26910699.716   141416662.447      -12025.548          44.000  
> 2022  2 14  0  2  3.0040000  0 11                     
G25  21795351.071   114535321.879      -12310.155          49.000  
G32  23125367.923   121524646.967      -11350.005          48.000  
G31  22653891.577   119047009.949      -11131.697          48.000  
G26  25685635.951   134978905.766       -8970.432          45.000  
G12  23768583.356   124904677.874      -14431.428          47.000  
G18  26250450.512   137947031.802      -15534.806          44.000  
G22  24077101.854   126526044.004      -11267.218          48.000  
G10  21321954.590   112047608.347      -12660.786          49.000  
G23  22351635.042   117458730.681      -15006.528          48.000  
G24  26147883.376   137408040.022      -15784.882          44.000  
G21  26912988.394   141428689.054      -12032.589          44.000  
> 2022  2 14  0  2  4.0040000  0 11                     
G25  21797693.231   114547629.950      -12306.537          49.000  
G32  23127527.333   121535995.084      -11346.017          48.000  
G31  22656009.640   119058139.942      -11128.113          48.000  
G26  25687342.609   134987874.198       -8966.344          45.000  
G12  23771329.213   124919107.713      -14428.055          47.000  
G18  26253406.256   137962564.551      -15530.472          44.000  
G22  24079245.514   126537309.235      -11263.185          48.000  
G10  21324363.502   112060267.072      -12657.151          49.000  
G23  22354490.623   117473735.599      -15003.089          48.000  
G24  26150886.756   137423822.874      -15780.702          44.000  
G21  26915277.794   141440719.845      -12028.819          44.000  
> 2022  2 14  0  2  5.0040000  0 11                     
G25  21800035.126   114559936.527      -12306.607          49.000  
G32  23129686.333   121547341.027      -11345.795          48.000  
G31  22658127.389   119069268.189      -11128.244          48.000  
G26  25689048.810   134996840.422       -8965.980          45.000  
G12  23774074.762   124933535.963      -14428.341          47.000  
G18  26256361.614   137978094.862      -15529.976          44.000  
G22  24081388.750   126548572.217      -11262.759          48.000  
G10  21326772.119   112072924.258      -12657.129          49.000  
G23  22357345.805   117488738.823      -15003.208          48.000  
G24  26153889.736   137439603.413      -15780.219          44.000  
G21  26917566.840   141452748.846      -12028.937          44.000  
> 2022  2 14  0  2  6.0040000  0 11                     
G25  21802377.556   114572245.968      -12310.335          49.000  
G32  23131845.812   121558689.145      -11348.476          48.000  
G31  22660245.445   119080399.040      -11131.429          48.000  
G26  25690755.483   135005808.795       -8968.735          45.000  
G12  23776821.003   124947966.981      -14431.677          47.000  
G18  26259317.323   137993627.081      -15532.339          44.000  
G22  24083532.337   126559837.302      -11265.333          48.000  
G10  21329181.284   112085584.270      -12660.908          49.000  
G23  22360201.425   117503744.708      -15006.335          48.000  
G24  26156893.011   137455385.999      -15782.860          44.000  
G21  26919856.410   141464780.408      -12032.197          44.000  
> 2022  2 14  0  2  7.0040000  0 11                     
G25  21804719.568                3     -12321.826          50.000  
G32  23134004.631                3     -11361.425          48.000  
G31  22662363.128                3     -11144.824          48.000  
G26  25692461.500                3      -8980.127          45.000  
G12  23779566.574                3     -14445.117          47.000  
G18  26262272.413                3     -15544.287          44.000  
G22  24085675.396                3     -11277.490          48.000  
G10  21331589.876                3     -12673.188          51.000  
G23  22363056.566                3     -15019.092          49.000  
G24  26159895.694                3     -15795.312          44.000  
G21  26922145.454                3     -12044.824          44.000  
> 2022  2 14  0  2  8.0040000  0 11                     
G25  21807064.485   114596897.2422     -12319.724          49.000  
G32  23136166.243   121581373.2302     -11356.570          48.000  
G31  22664483.470   119102664.3662     -11140.321          48.000  
G26  25694170.307   135023775.7802      -8976.608          45.000  
G12  23782315.222   124976909.6162     -14440.981          47.000  
G18  26265230.167   138024716.0932     -15540.025          44.000  
G22  24087821.227   126582354.6312     -11273.479          48.000  
G10  21334001.522   112110934.5682     -12670.125          49.000  
G23  22365914.007   117533670.8152     -15015.592          48.000  
G24  26162901.204   137486973.5962     -15790.755          44.000  
G21  26924437.342   141488872.9902     -12040.872          44.000  
> 2022  2 14  0  2  9.0040000  0 11                     
G25  21809408.454   114609214.7282     -12318.456          49.000  
G32  23138327.200   121592727.3842     -11354.772          48.000  
G31  22666603.130   119113802.5322     -11139.003          48.000  
G26  25695878.037   135032750.0992      -8974.932          45.000  
G12  23785062.788   124991348.4222     -14439.696          48.000  
G18  26268186.903   138040253.5672     -15537.966          44.000  
G22  24089965.976   126593625.5452     -11271.489          48.000  
G10  21336412.193   112123602.5083     -12668.890          49.000  
G23  22368771.271   117548684.2062     -15014.256          48.000  
G24  26165905.585   137502761.7982     -15788.691          44.000  
G21  26926728.271   141500911.7132     -12039.417          44.000  
> 2022  2 14  0  2 10.0040000  0 11                     
G25  21811752.676   114621533.4742     -12315.188          49.000  
G32  23140488.680   121604082.1142     -11351.164          48.000  
G31  22668723.483   119124941.7042     -11135.854          48.000  
G26  25697585.900   135041724.9542      -8971.378          45.000  
G12  23787810.574   125005788.3992     -14436.646          47.000  
G18  26271143.656   138055791.3482     -15534.062          44.000  
G22  24092110.861   126604896.9692     -11267.715          48.000  
G10  21338823.069   112136271.6672     -12665.564          49.000  
G23  22371628.673   117563698.6682     -15011.104          48.000  
G24  26168910.063   137518550.4442     -15785.071          44.000  
G21  26929019.357   141512951.3942     -12036.272          44.000  
> 2022  2 14  0  2 11.0040000  0 11                     
G25  21814096.821   114633851.7683     -12320.946          49.000  
G32  23142649.032   121615435.6852     -11356.205          48.000  
G31  22670843.115   119136080.1432     -11141.348          48.000  
G26  25699293.617   135050698.6152      -8976.258          45.000  
G12  23790558.240   125020227.7992     -14442.325          47.000  
G18  26274100.194   138071327.7142     -15538.899          44.000  
G22  24094255.482   126616167.1702     -11272.771          48.000  
G10  21341233.866   112148940.3403     -12671.326          49.000  
G23  22374485.823   117578712.4522     -15016.587          48.000  
G24  26171914.334   137534337.7852     -15789.870          44.000  
G21  26931310.376   141524990.2922     -12041.739          44.000  
> 2022  2 14  0  2 12.0040000  0 11                     
G25  21816441.192   114646171.4102     -12320.205          49.000  
G32  23144809.836   121626789.9152     -11354.533          48.000  
G31  22672962.959   119147219.6582     -11139.981          48.000  
G26  25701001.328   135059672.9062      -8974.594          45.000  
G12  23793306.154   125034668.4432     -14441.235          47.000  
G18  26277056.800   138086864.4702     -15536.856          44.000  
G22  24096400.252   126627437.9602     -11271.074          48.000  
G10  21343644.913   112161610.3252     -12670.497          49.000  
G23  22377342.778   117593727.3962     -15015.447          48.000  
G24  26174918.671   137550125.6572     -15788.103          44.000  
G21  26933601.546   141537030.2242     -12040.518          44.000  
> 2022  2 14  0  2 13.0040000  0 11                     
G25  21818785.941   114658493.9083     -12320.218          49.000  
G32  23146970.548   121638145.352      -11353.777          48.000  
G31  22675082.834   119158360.3171     -11139.628          48.000  
G26  25702709.295   135068647.8821      -8973.829          45.000  
G12  23796054.524   125049110.885      -14441.056          47.000  
G18  26280013.575   138102401.6811     -15535.938          44.000  
G22  24098545.159   126638709.3861     -11270.214          48.000  
G10  21346056.314   112174282.1203     -12670.464          49.000  
G23  22380200.179   117608744.031      -15015.286          48.000  
G24  26177923.220   137565914.596      -15787.218          44.000  
G21  26935892.991   141549071.2391     -12040.074          44.000  
> 2022  2 14  0  2 14.0040000  0 11                     
G25  21821130.779   114670815.8792     -12321.641          49.000  
G32  23149131.212   121649500.577      -11354.718          48.000  
G31  22677202.678   119169501.696      -11141.165          48.000  
G26  25704417.298   135077623.110       -8974.683          45.000  
G12  23798802.904   125063553.705      -14442.648          47.000  
G18  26282970.207   138117938.914      -15536.596          44.000  
G22  24100689.986   126649981.030      -11271.033          48.000  
G10  21348467.765   112186954.3492     -12671.900          49.000  
G23  22383058.188   117623760.949      -15016.762          48.000  
G24  26180927.742   137581703.196      -15788.097          44.000  
G21  26938184.534   141561112.925      -12041.416          44.000  
> 2022  2 14  0  2 15.0040000  0 11                     
G25  21823475.210   114683135.8832     -12319.512          49.000  
G32  23151291.317   121660853.159      -11351.904          48.000  
G31  22679322.241   119180640.841      -11138.588          48.000  
G26  25706124.733   135086595.649       -8971.842          45.000  
G12  23801550.897   125077994.453      -14440.272          48.000  
G18  26285926.309   138133473.227      -15533.337          44.000  
G22  24102834.291   126661249.958      -11268.190          48.000  
G10  21350878.866   112199624.5732     -12669.749          49.000  
G23  22385915.194   117638775.691      -15014.228          48.000  
G24  26183931.726   137597488.990      -15784.972          44.000  
G21  26940475.559   141573152.329      -12038.719          44.000  
> 2022  2 14  0  2 16.0040000  0 11                     
G25  21825819.570   114695455.4402     -12318.717          49.000  
G32  23153451.108   121672204.619      -11350.101          48.000  
G31  22681441.404   119191779.300      -11137.346          48.000  
G26  25707831.997   135095567.058       -8970.162          45.000  
G12  23804298.754   125092434.677      -14439.244          48.000  
G18  26288882.094   138149006.170      -15531.538          44.000  
G22  24104978.448   126672517.704      -11266.399          48.000  
G10  21353289.850   112212294.3162     -12668.897          49.000  
G23  22388771.843   117653789.816      -15013.067          48.000  
G24  26186935.467   137613273.538      -15783.119          44.000  
G21  26942766.493   141585191.009      -12037.606          44.000  
> 2022  2 14  0  2 17.0040000  0 11                     
G25  21828163.819   114707774.3993     -12318.711          49.000  
G32  23155610.943   121683554.770      -11349.148          48.000  
G31  22683560.629   119202916.882      -11136.810          48.000  
G26  25709539.017   135104537.112       -8968.962          45.000  
G12  23807046.621   125106874.177      -14438.807          48.000  
G18  26291837.612   138164537.543      -15530.270          44.000  
G22  24107122.423   126683784.066      -11265.343          48.000  
G10  21355700.757   112224964.4183     -12668.811          49.000  
G23  22391628.873   117668803.119      -15012.571          48.000  
G24  26189938.892   137629056.641      -15782.012          44.000  
G21  26945057.222   141597228.754      -12037.058          44.000  
> 2022  2 14  0  2 18.0040000  0 11                     
G25  21830507.615   114720090.9612     -12316.619          49.000  
G32  23157770.096   121694901.886      -11346.815          48.000  
G31  22685679.275   119214051.844      -11134.799          48.000  
G26  25711245.408   135113504.100       -8966.607          45.000  
G12  23809793.883   125121311.220      -14437.038          48.000  
G18  26294792.517   138180065.604      -15527.633          43.000  
G22  24109265.664   126695047.321      -11262.875          48.000  
G10  21358111.163   112237631.0892     -12666.723          49.000  
G23  22394485.253   117683813.871      -15010.611          48.000  
G24  26192941.784   137644836.564      -15779.505          44.000  
G21  26947347.480   141609263.817      -12034.861          44.000  
> 2022  2 14  0  2 19.0040000  0 11                     
G25  21832851.968   114732411.3163     -12320.890          49.000  
G32  23159929.839   121706251.081      -11349.843          48.000  
G31  22687798.608   119225189.322      -11138.290          48.000  
G26  25712952.265   135122473.143       -8969.518          45.000  
G12  23812541.612   125135750.935      -14440.647          47.000  
G18  26297747.725   138195595.494      -15530.385          43.000  
G22  24111409.403   126706312.591      -11265.872          48.000  
G10  21360522.119   112250300.5133     -12670.972          49.000  
G23  22397342.602   117698827.197      -15014.207          48.000  
G24  26195945.039   137660618.438      -15782.444          44.000  
G21  26949638.172   141621301.378      -12038.386          44.000  
> 2022  2 14  0  2 20.0040000  0 11                     
G25  21835196.483   114744731.7003     -12317.304          49.000  
G32  23162089.575   121717600.657      -11345.658          48.000  
G31  22689918.210   119236327.604      -11134.515          48.000  
G26  25714659.050   135131442.542       -8965.479          45.000  
G12  23815289.630   125150191.619      -14437.089          47.000  
G18  26300702.999   138211125.497      -15526.021          43.000  
G22  24113553.160   126717578.175      -11261.755          48.000  
G10  21362933.252   112262971.9383     -12667.627          49.000  
G23  22400200.343   117713841.388      -15010.502          48.000  
G24  26198948.295   137676400.548      -15778.081          44.000  
G21  26951928.979   141633339.668      -12034.683          44.000  
> 2022  2 14  0  2 21.0040000  0 11                     
G25  21837540.674   114757050.2472     -12319.663          49.000  
G32  23164248.855   121728947.733      -11348.021          48.000  
G31  22692037.386   119247463.810      -11137.277          48.000  
G26  25716365.437   135140409.396       -8967.835          45.000  
G12  23818037.133   125164630.385      -14440.043          47.000  
G18  26303657.767   138226652.724      -15528.060          43.000  
G22  24115696.420   126728841.179      -11263.963          48.000  
G10  21365344.020   112275640.4502     -12669.586          49.000  
G23  22403057.386   117728853.569      -15013.456          48.000  
G24  26201951.078   137692180.027      -15780.440          44.000  
G21  26954219.364   141645375.828      -12037.226          44.000  
> 2022  2 14  0  2 22.0040000  0 11                     
G25  21839885.005   114769369.6373     -12318.917          49.000  
G32  23166408.281   121740294.940      -11346.862          48.000  
G31  22694156.520   119258600.579      -11136.614          48.000  
G26  25718071.774   135149376.362       -8966.575          45.000  
G12  23820784.909   125179069.864      -14439.376          47.000  
G18  26306612.474   138242179.836      -15526.647          43.000  
G22  24117839.715   126740104.248      -11262.657          48.000  
G10  21367754.955   112288309.7963     -12668.596          49.000  
G23  22405914.385   117743866.366      -15012.634          48.000  
G24  26204953.797   137707959.489      -15779.084          44.000  
G21  26956509.924   141657412.515      -12036.392          44.000  
> 2022  2 14  0  2 23.0040000  0 11                     
G25  21842228.788   114781686.1492     -12317.597          49.000  
G32  23168566.861   121751638.593      -11344.309          48.000  
G31  22696275.238   119269734.222      -11134.558          48.000  
G26  25719777.488   135158339.738       -8964.044          45.000  
G12  23823532.096   125193506.388      -14437.553          47.000  
G18  26309566.472   138257703.120      -15523.818          43.000  
G22  24119982.340   126751363.703      -11260.204          48.000  
G10  21370165.341   112300976.2233     -12667.498          49.000  
G23  22408770.714   117758876.102      -15010.722          48.000  
G24  26207955.814   137723735.266      -15776.381          44.000  
G21  26958799.815   141669446.029      -12034.336          44.000  
> 2022  2 14  0  2 24.0040000  0 11                     
G25  21844573.455   114794007.3372     -12315.192          49.000  
G32  23170726.156   121762986.229      -11340.818          48.000  
G31  22698394.746   119280872.262      -11131.379          48.000  
G26  25721484.020   135167307.063       -8960.366          45.000  
G12  23826280.123   125207947.466      -14434.585          47.000  
G18  26312521.152   138273230.125      -15520.024          43.000  
G22  24122125.666   126762627.065      -11256.673          48.000  
G10  21372576.591   112313647.2892     -12665.051          49.000  
G23  22411627.528   117773890.299      -15007.635          48.000  
G24  26210958.598   137739514.878      -15772.634          44.000  
G21  26961090.611   141681483.892      -12031.242          44.000  
> 2022  2 14  0  2 25.0040000  0 11                     
G25  21846917.871   114806328.1903     -12318.219          49.000  
G32  23172885.189   121774331.911      -11343.734          48.000  
G31  22700514.071   119292008.787      -11134.881          48.000  
G26  25723190.059   135176272.418       -8963.365          45.000  
G12  23829027.866   125222387.182      -14438.047          47.000  
G18  26315475.463   138288754.920      -15522.697          43.000  
G22  24124268.590   126773888.395      -11259.347          48.000  
G10  21374987.586   112326316.9753     -12668.061          49.000  
G23  22414484.909   117788903.043      -15011.131          48.000  
G24  26213961.041   137755292.413      -15775.592          44.000  
G21  26963381.060   141693520.172      -12034.566          44.000  
> 2022  2 14  0  2 26.0040000  0 11                     
G25  21849261.573   114818644.1553     -12324.307          49.000  
G32  23175043.449   121785672.973      -11349.145          48.000  
G31  22702632.878   119303141.110      -11140.638          48.000  
G26  25724895.296   135185233.107       -8968.820          45.000  
G12  23831774.917   125236822.860      -14444.033          47.000  
G18  26318428.818   138304274.816      -15527.821          43.000  
G22  24126410.685   126785145.044      -11264.728          48.000  
G10  21377397.833   112338983.7403     -12674.159          49.000  
G23  22417341.666   117803911.644      -15016.942          48.000  
G24  26216962.452   137771065.178      -15780.797          44.000  
G21  26965670.755   141705552.218      -12040.317          44.000  
> 2022  2 14  0  2 27.0040000  0 11                     
G25  21851606.125   114830964.6732     -12323.552          49.000  
G32  23177202.713   121797017.946      -11347.686          48.000  
G31  22704752.246   119314277.772      -11139.603          48.000  
G26  25726601.227   135194197.680       -8967.233          45.000  
G12  23834522.814   125251263.030      -14443.067          47.000  
G18  26321382.912   138319798.370      -15526.116          43.000  
G22  24128553.518   126796405.526      -11262.980          48.000  
G10  21379808.932   112351653.9942     -12673.151          49.000  
G23  22420198.301   117818924.640      -15015.994          48.000  
G24  26219964.601   137786841.715      -15779.112          44.000  
G21  26967961.243   141717588.552      -12039.180          44.000  
> 2022  2 14  0  2 28.0040000  0 11                     
G25  21853950.874   114843286.2493     -12324.753          49.000  
G32  23179361.959   121808363.261      -11348.511          48.000  
G31  22706871.722   119325415.201      -11140.810          48.000  
G26  25728307.212   135203162.573       -8968.053          45.000  
G12  23837270.910   125265704.137      -14444.507          47.000  
G18  26324336.989   138335321.994      -15526.631          43.000  
G22  24130696.329   126807666.293      -11263.853          48.000  
G10  21382220.241   112364325.3063     -12674.300          49.000  
G23  22423055.626   117833938.477      -15017.231          48.000  
G24  26222966.834   137802618.464      -15779.915          44.000  
G21  26970251.862   141729625.601      -12040.394          44.000  
> 2022  2 14  0  2 29.0040000  0 11                     
G25  21856295.528   114855607.2783     -12329.606          49.000  
G32  23181520.797   121819707.369      -11352.161          48.000  
G31  22708990.979   119336551.855      -11144.938          48.000  
G26  25730012.928   135212126.224       -8971.804          45.000  
G12  23840018.812   125280144.618      -14448.762          47.000  
G18  26327290.778   138350844.158      -15530.159          43.000  
G22  24132838.937   126818925.780      -11267.483          48.000  
G10  21384631.439   112376996.0173     -12679.487          49.000  
G23  22425912.233   117848951.594      -15021.449          49.000  
G24  26225968.797   137818393.861      -15783.426          44.000  
G21  26972542.358   141741661.819      -12044.352          44.000  
> 2022  2 14  0  2 30.0040000  0 11                     
G25  21858641.014   114867933.7712     -12321.278          49.000  
G32  23183680.345   121831055.247      -11343.150          48.000  
G31  22711111.023   119347692.703      -11136.410          48.000  
G26  25731719.364   135221093.607       -8962.717          45.000  
G12  23842767.547   125294589.461      -14440.484          47.000  
G18  26330245.221   138366369.820      -15520.922          43.000  
G22  24134982.226   126830188.967      -11258.533          48.000  
G10  21387043.457   112389671.1522     -12671.039          49.000  
G23  22428770.170   117863968.962      -15012.932          48.000  
G24  26228971.443   137834172.896      -15774.284          44.000  
G21  26974833.659   141753702.199      -12035.987          44.000  
> 2022  2 14  0  2 31.0040000  0 11                     
G25  21860985.819   114880255.5573     -12331.729          49.000  
G32  23185839.049   121842398.790      -11353.742          48.000  
G31  22713230.364   119358829.648      -11147.441          48.000  
G26  25733424.955   135230056.644       -8973.406          45.000  
G12  23845515.573   125309030.544      -14451.512          47.000  
G18  26333198.774   138381890.881      -15531.089          43.000  
G22  24137124.722   126841447.744      -11268.923          48.000  
G10  21389454.801   112402343.5273     -12681.379          49.000  
G23  22431628.015   117878982.492      -15024.089          48.000  
G24  26231973.360   137849947.457      -15784.813          44.000  
G21  26977124.261   141765738.599      -12046.812          44.000  
